[
  {
    "name": "351 Barbell Club",
    "address": "351 Victory Road, Winchester, Virginia, United States of America, 22602",
    "latitude": 36.6878242,
    "longitude": -76.229921,
    "recentMemberCount": 0
  },
  {
    "name": "Aevitas Weightlifting",
    "address": "2101 Route 9, Round Lake, New York, United States of America, 12151",
    "latitude": 42.945886,
    "longitude": -73.7910182,
    "recentMemberCount": 1
  },
  {
    "name": "Albany CrossFit Barbell Club",
    "address": "444 Sand Creek Rd, Albany, New York, United States of America, 12205",
    "latitude": 42.713825,
    "longitude": -73.8103136,
    "recentMemberCount": 2
  },
  {
    "name": "Barbender Academy",
    "address": "957 Atlantic Ave., Brooklyn, New York, United States of America, 11238",
    "latitude": 40.6806015,
    "longitude": -73.9605399,
    "recentMemberCount": 0
  },
  {
    "name": "Brave Barbells N Sprinkles WLC",
    "address": "305 ashville ave suite g, cary, North Carolina, United States of America, 27518",
    "latitude": 35.712563,
    "longitude": -78.721516,
    "recentMemberCount": 1
  },
  {
    "name": "CALIFORNIA STRENGTH",
    "address": "2021 Omega Road, Suite 120, San Ramon, California, United States of America, 94583",
    "latitude": 37.7591651,
    "longitude": -121.9576755,
    "recentMemberCount": 5
  },
  {
    "name": "Great Plains Barbell",
    "address": "15829 S Mahaffie St., Olathe, Kansas, United States of America, 66062",
    "latitude": 38.8451878,
    "longitude": -94.8036228,
    "recentMemberCount": 0
  },
  {
    "name": "First Coast Weightlifting",
    "address": "597 Edgewood Ave S, Jacksonville, Florida, United States of America, 32205",
    "latitude": 30.3162338,
    "longitude": -81.7221901,
    "recentMemberCount": 0
  },
  {
    "name": "Fourteen Forty Collective",
    "address": "831 Pear Street, Lemoyne, Pennsylvania, United States of America, 17043",
    "latitude": 40.2417396,
    "longitude": -76.8996965,
    "recentMemberCount": 3
  },
  {
    "name": "FRONT RANGE WLC",
    "address": "1338 S Valentia, Unit 175, Denver, Colorado, United States of America, 80247",
    "latitude": 39.6949832,
    "longitude": -104.8801134,
    "recentMemberCount": 0
  },
  {
    "name": "Long Beach Weightlifting",
    "address": "4102 Orange Avenue, Unit 111, Long Beach, California, United States of America, 90807",
    "latitude": 33.8272402,
    "longitude": -118.1825752,
    "recentMemberCount": 2
  },
  {
    "name": "Bridge Performance",
    "address": "715 N Los Robles Ave, Pasadena, California, United States of America, 91104",
    "latitude": 34.1581367,
    "longitude": -118.141625,
    "recentMemberCount": 0
  },
  {
    "name": "Nashville Weightlifting Club",
    "address": "119B Madison Station Blvd, Madison, Tennessee, United States of America, 37115",
    "latitude": 36.2610656,
    "longitude": -86.7154068,
    "recentMemberCount": 1
  },
  {
    "name": "Peak weightlifting",
    "address": "15336 latitude dr., Bonita Springs, Florida, United States of America, 34135",
    "latitude": 26.3247297,
    "longitude": -81.6966176,
    "recentMemberCount": 0
  },
  {
    "name": "Cambridge Strength Weightlifting",
    "address": "1 Broadway, Arlington, Massachusetts, United States of America, 02474",
    "latitude": 42.4077197,
    "longitude": -71.1341472,
    "recentMemberCount": 0
  },
  {
    "name": "CPC Barbell Club",
    "address": "175 Benton Drive, East Longmeadow, Massachusetts, United States of America, 01028",
    "latitude": 42.0474419,
    "longitude": -72.5318331,
    "recentMemberCount": 0
  },
  {
    "name": "Central Maryland Gold Weightlifting Club",
    "address": "SoldierFit Frederick, 8420 Gas House Pike, Suite Z, Frederick, Maryland, United States of America, 21701",
    "latitude": 39.415779,
    "longitude": -77.4127562,
    "recentMemberCount": 0
  },
  {
    "name": "HEAVY METAL BARBELL",
    "address": "624 Anderson Street, Charlotte, North Carolina, United States of America, 28205",
    "latitude": 35.2489503,
    "longitude": -80.7962459,
    "recentMemberCount": 7
  },
  {
    "name": "RL Strength Club",
    "address": "3309 Wheatberry Ln, Mansfield, Texas, United States of America, 76063",
    "latitude": 32.5394798,
    "longitude": -97.0854616,
    "recentMemberCount": 0
  },
  {
    "name": "Concordia University Weightlifting",
    "address": "800 N Columbia Ave, Seward, Nebraska, United States of America, 68434",
    "latitude": 40.9136406,
    "longitude": -97.0875102,
    "recentMemberCount": 2
  },
  {
    "name": "Shadyside Barbell",
    "address": "500 South Graham Street, Pittsburgh, Pennsylvania, United States of America, 15232",
    "latitude": 40.456419,
    "longitude": -79.936526,
    "recentMemberCount": 0
  },
  {
    "name": "Vardanian Weightlifting",
    "address": "901 N. Union BLVD, Colorado Springs, Colorado, United States of America, 80909",
    "latitude": 38.8451498,
    "longitude": -104.7938139,
    "recentMemberCount": 5
  },
  {
    "name": "FOF Barbell Club",
    "address": "4851 W Spencerfield Rd, Pace, Florida, United States of America, 32571",
    "latitude": 30.6343286,
    "longitude": -87.151733,
    "recentMemberCount": 0
  },
  {
    "name": "Anavah Weightlifting",
    "address": "614 Spring Cypress Rd., Spring, Texas, United States of America, 77373",
    "latitude": 30.0793388,
    "longitude": -95.4242658,
    "recentMemberCount": 0
  },
  {
    "name": "BEANTOWN BARBELL CLUB",
    "address": "90 Leavitt St, Salem, Massachusetts, United States of America, 01970",
    "latitude": 42.5149949,
    "longitude": -70.8882116,
    "recentMemberCount": 0
  },
  {
    "name": "HASSLE FREE BBC",
    "address": "16 Kirkwood Court, East Palo Alto, California, United States of America, 94303",
    "latitude": 37.4745249,
    "longitude": -122.1458354,
    "recentMemberCount": 18
  },
  {
    "name": "Alpha Uno Athletics",
    "address": "129 West Arbor Vitae Street, Inglewood, California, United States of America, 90301",
    "latitude": 33.9533731,
    "longitude": -118.3301563,
    "recentMemberCount": 0
  },
  {
    "name": "Badges and Barbells WC",
    "address": "1104 Maple St, Sumner, Washington, United States of America, 98390",
    "latitude": 47.2019939,
    "longitude": -122.2400106,
    "recentMemberCount": 0
  },
  {
    "name": "The Grind Weightlifting Club",
    "address": "910 W SILVER HILL ST, ORO VALLEY, Arizona, United States of America, 85737",
    "latitude": 32.4092662,
    "longitude": -110.9970507,
    "recentMemberCount": 0
  },
  {
    "name": "True North Weightlifting",
    "address": "20 W Haley Spings Rd, Bozeman, Montana, United States of America, 59718",
    "latitude": 45.6843601,
    "longitude": -111.0925294,
    "recentMemberCount": 0
  },
  {
    "name": "970 Barbell",
    "address": "6820 Powell St, Loveland, Colorado, United States of America, 80538",
    "latitude": 40.4344477,
    "longitude": -104.9761297,
    "recentMemberCount": 0
  },
  {
    "name": "Fairbanks Barbell Club",
    "address": "1256 Queens Way, Fairbanks, Alaska, United States of America, 99701",
    "latitude": 64.8094812,
    "longitude": -147.7325986,
    "recentMemberCount": 2
  },
  {
    "name": "Rail Stop Barbell",
    "address": "10620 Maltese Point, Peyton, Colorado, United States of America, 80831",
    "latitude": 38.9401366,
    "longitude": -104.6309262,
    "recentMemberCount": 0
  },
  {
    "name": "CLEAN SLATE WEIGHTLIFTING",
    "address": "1037 Byers Rd, Miamisburg, Ohio, United States of America, 45342",
    "latitude": 39.6362531,
    "longitude": -84.2346539,
    "recentMemberCount": 5
  },
  {
    "name": "Arthur Leung",
    "address": "15265 Display Ct, Rockville, Maryland, United States of America, 20850",
    "latitude": 39.0873569,
    "longitude": -77.1883925,
    "recentMemberCount": 0
  },
  {
    "name": "Clintonville Barbell",
    "address": "609 Oakland Park Ave, Unit B, Columbus, Ohio, United States of America, 43214",
    "latitude": 40.0487933,
    "longitude": -83.0140544,
    "recentMemberCount": 2
  },
  {
    "name": "3P Weightlifting",
    "address": "5768 Quintette RD, Pace, Florida, United States of America, 32571",
    "latitude": 30.6343286,
    "longitude": -87.151733,
    "recentMemberCount": 2
  },
  {
    "name": "CBA Colts Weightlifting",
    "address": "850 Newman Springs Road, Lincroft, New Jersey, United States of America, 07738",
    "latitude": 40.3365129,
    "longitude": -74.1383584,
    "recentMemberCount": 1
  },
  {
    "name": "BLOOMINGTON-NORMAL BARBELL CLUB",
    "address": "2902 Gill St. Unit A, Bloomington, Illinois, United States of America, 61704",
    "latitude": 40.4723346,
    "longitude": -88.9670094,
    "recentMemberCount": 0
  },
  {
    "name": "SAYRE PARK WLC",
    "address": "6871 W Belden, Chicago, Illinois, United States of America, 60201",
    "latitude": 41.9207484,
    "longitude": -87.7969766,
    "recentMemberCount": 0
  },
  {
    "name": "Honey Badger Gym",
    "address": "1705 S Main St, Joplin, Missouri, United States of America, 64804",
    "latitude": 37.0729301,
    "longitude": -94.5138828,
    "recentMemberCount": 0
  },
  {
    "name": "SC Weightlifting",
    "address": "403 lewis street, Silverton, Oregon, United States of America, 97381",
    "latitude": 45.0055918,
    "longitude": -122.7804264,
    "recentMemberCount": 0
  },
  {
    "name": "Resilient Weightlifting",
    "address": "616 W 5th Ave., Naperville, Illinois, United States of America, 60563",
    "latitude": 41.7804364,
    "longitude": -88.1599751,
    "recentMemberCount": 0
  },
  {
    "name": "Tangorra Training Systems",
    "address": "911 E Broadway Ave, Maryville, Tennessee, United States of America, 37804",
    "latitude": 35.7618864,
    "longitude": -83.9652286,
    "recentMemberCount": 0
  },
  {
    "name": "Texas Revolution Weightlifting Club",
    "address": "180 Cattlemans Creek Rd, Newark, Texas, United States of America, 76071",
    "latitude": 33.0045865,
    "longitude": -97.4884097,
    "recentMemberCount": 0
  },
  {
    "name": "VAUGHN WEIGHTLIFTING",
    "address": "502 Sparta Rd., Belton, Texas, United States of America, 76513",
    "latitude": 31.0832411,
    "longitude": -97.4673102,
    "recentMemberCount": 2
  },
  {
    "name": "Warner University",
    "address": "13895 US Highway 27, Lake Wales, Florida, United States of America, 33859",
    "latitude": 27.8831471,
    "longitude": -81.614547,
    "recentMemberCount": 1
  },
  {
    "name": "The Retirement Home",
    "address": "1950 Anasazi Court, Colorado Springs, Colorado, United States of America, 80919",
    "latitude": 38.9302768,
    "longitude": -104.8624373,
    "recentMemberCount": 0
  },
  {
    "name": "Fort-Nash WLC WA",
    "address": "5823 Boulevard Extension Rd SE, Olympia, Washington, United States of America, 98501",
    "latitude": 47.0077583,
    "longitude": -122.8741576,
    "recentMemberCount": 0
  },
  {
    "name": "McKenna Weightlifting",
    "address": "407-409 Raritan Avenue, Highland Park Borough, New Jersey, United States of America, 08904",
    "latitude": 40.4996962,
    "longitude": -74.4260762,
    "recentMemberCount": 1
  },
  {
    "name": "Praxis Weightlifting",
    "address": "SLC, SLC, Utah, United States of America, 84095",
    "latitude": 40.7900661,
    "longitude": -111.9798985,
    "recentMemberCount": 2
  },
  {
    "name": "THE SPORTS PALACE",
    "address": "387 Grand Avenue, San Francisco, California, United States of America, 94080",
    "latitude": 37.7525885,
    "longitude": -122.442348,
    "recentMemberCount": 2
  },
  {
    "name": "The Weight Room",
    "address": "9625 E. 150th St, Suite 106, Noblesville, Indiana, United States of America, 46060",
    "latitude": 40.0337375,
    "longitude": -85.9858041,
    "recentMemberCount": 1
  },
  {
    "name": "TOUGH TEMPLE BARBELL CLUB",
    "address": "12143 Nebel St, North Bethesda, Maryland, United States of America, 20852",
    "latitude": 39.046682,
    "longitude": -77.1052097,
    "recentMemberCount": 1
  },
  {
    "name": "Triumph Barbell",
    "address": "7513 Sussex drive, Florence, Kentucky, United States of America, 41042",
    "latitude": 38.9847244,
    "longitude": -84.6330486,
    "recentMemberCount": 0
  },
  {
    "name": "True Strength Performance Weightlifting",
    "address": "2745 Wildflower Dr, Lawrence, Kansas, United States of America, 66047",
    "latitude": 38.9342614,
    "longitude": -95.2997003,
    "recentMemberCount": 2
  },
  {
    "name": "Winnersville Barbell Club",
    "address": "3125 N Ashley St, Valdosta, Georgia, United States of America, 31602",
    "latitude": 30.8770314,
    "longitude": -83.2891403,
    "recentMemberCount": 0
  },
  {
    "name": "Buff City Barbell",
    "address": "1 seneca st. Suite 1010, Buffalo, New York, United States of America, 14203",
    "latitude": 42.8858953,
    "longitude": -78.8700905,
    "recentMemberCount": 0
  },
  {
    "name": "Catalyst Masters",
    "address": "PO Box 1559, Terrebonne, Oregon, United States of America, 97760",
    "latitude": 44.3658143,
    "longitude": -121.160581,
    "recentMemberCount": 0
  },
  {
    "name": "Champion Weightlifting",
    "address": "653 SW 2nd Street, Lee's Summit, Missouri, United States of America, 64063",
    "latitude": 38.9125083,
    "longitude": -94.3906629,
    "recentMemberCount": 0
  },
  {
    "name": "Grow or Die Barbell",
    "address": "1800 Lower Roswell Rd, Marietta, Georgia, United States of America, 30067",
    "latitude": 33.9518662,
    "longitude": -84.4997095,
    "recentMemberCount": 1
  },
  {
    "name": "WiscoLift",
    "address": "15801 W Schaefer Ct, New Berlin, Wisconsin, United States of America, 53151",
    "latitude": 42.9403907,
    "longitude": -88.1110035,
    "recentMemberCount": 0
  },
  {
    "name": "Myriad Weightlifting",
    "address": "922 North Capitol Ave, Indianapolis, Indiana, United States of America, 46204",
    "latitude": 39.780767,
    "longitude": -86.1616077,
    "recentMemberCount": 3
  },
  {
    "name": "NEW HAVEN WEIGHTLIFTING CLUB",
    "address": "310 Winchester Ave., New Haven, Connecticut, United States of America, 06511",
    "latitude": 41.3237856,
    "longitude": -72.9284481,
    "recentMemberCount": 1
  },
  {
    "name": "Rebels Weightlifting Club",
    "address": "85 Nutmeg Rd S, South Windsor, Connecticut, United States of America, 06074",
    "latitude": 41.8222981,
    "longitude": -72.6071065,
    "recentMemberCount": 0
  },
  {
    "name": "Verdant Barbell",
    "address": "528 S Americana Blvd, Boise, Idaho, United States of America, 83702",
    "latitude": 43.6178768,
    "longitude": -116.2160837,
    "recentMemberCount": 1
  },
  {
    "name": "Victory Kid Barbell",
    "address": "2640 Burlingame Ave, Ste A, Wyoming, Michigan, United States of America, 49509",
    "latitude": 42.8966383,
    "longitude": -85.6935544,
    "recentMemberCount": 0
  },
  {
    "name": "Waco Barbell",
    "address": "5900 Franklin ave #30, Waco, Texas, United States of America, 76710",
    "latitude": 31.5364296,
    "longitude": -97.1835682,
    "recentMemberCount": 4
  },
  {
    "name": "Ablaze Barbell",
    "address": "726 Beal Parkway BLG#3, Fort Walton Beach, Florida, United States of America, 32547",
    "latitude": 30.446217,
    "longitude": -86.6312931,
    "recentMemberCount": 0
  },
  {
    "name": "Born Again Weightlifting",
    "address": "3197 Hill Rd., ELIZABETHTOWN, Pennsylvania, United States of America, 17022",
    "latitude": 40.1563004,
    "longitude": -76.603194,
    "recentMemberCount": 0
  },
  {
    "name": "Brightside Barbell",
    "address": "1920 park blvd, Oakland, California, United States of America, 94606",
    "latitude": 37.7999663,
    "longitude": -122.2495161,
    "recentMemberCount": 0
  },
  {
    "name": "Greensboro Barbell",
    "address": "1105 Park Terrace, Greensboro, North Carolina, United States of America, 27403",
    "latitude": 36.0630211,
    "longitude": -79.8399765,
    "recentMemberCount": 0
  },
  {
    "name": "IRON GATORS",
    "address": "1900 NW 13th Street, Gainesville, Florida, United States of America, 32609",
    "latitude": 29.6692137,
    "longitude": -82.3412138,
    "recentMemberCount": 2
  },
  {
    "name": "KiloDelphia",
    "address": "3500 Scotts Lane, Suite 215, Philadelphia, Pennsylvania, United States of America, 19129",
    "latitude": 40.0090598,
    "longitude": -75.1806203,
    "recentMemberCount": 1
  },
  {
    "name": "CATALYST ATHLETICS",
    "address": "PO Box 1559, Terrebonne, Oregon, United States of America, 97760",
    "latitude": 44.3658143,
    "longitude": -121.160581,
    "recentMemberCount": 2
  },
  {
    "name": "Unbreakable Barbell",
    "address": "323 New Rd, Unit 5 & 6, Parsippany, New Jersey, United States of America, 07054",
    "latitude": 40.8584068,
    "longitude": -74.4133864,
    "recentMemberCount": 0
  },
  {
    "name": "Heroic Barbell",
    "address": "1509 SW Sunset blvd, Portland, Oregon, United States of America, 97239",
    "latitude": 45.4796757,
    "longitude": -122.6931574,
    "recentMemberCount": 1
  },
  {
    "name": "House of Weightlifting",
    "address": "South Carolina, United States of America",
    "latitude": 33.6874388,
    "longitude": -80.4363743,
    "recentMemberCount": 1
  },
  {
    "name": "IDAHO WEIGHTLIFTING",
    "address": "1202 N 24th Street, Boise, Idaho, United States of America, 83702",
    "latitude": 43.6313455,
    "longitude": -116.2178672,
    "recentMemberCount": 1
  },
  {
    "name": "JDI BARBELL",
    "address": "1767 Park Ave, Basement Level, New York, New York, United States of America, 10035",
    "latitude": 40.7944178,
    "longitude": -73.9417578,
    "recentMemberCount": 3
  },
  {
    "name": "Lvl-up strength",
    "address": "2862 singing rain place, San Jose, California, United States of America, 95127",
    "latitude": 37.3520834,
    "longitude": -121.8222862,
    "recentMemberCount": 0
  },
  {
    "name": "Mars Hill University",
    "address": "100 Athletic St., Mars Hill, North Carolina, United States of America, 28754",
    "latitude": 35.8275207,
    "longitude": -82.5503803,
    "recentMemberCount": 1
  },
  {
    "name": "Mountain Muscle Weightlifting",
    "address": "6258 S Main St, Tetonia, Idaho, United States of America, 83452",
    "latitude": 43.8131892,
    "longitude": -111.1602024,
    "recentMemberCount": 0
  },
  {
    "name": "SHEYENNE MUSTANGS",
    "address": "800  40th Ave E, West Fargo, North Dakota, United States of America, 58078",
    "latitude": 46.8207211,
    "longitude": -96.8846021,
    "recentMemberCount": 0
  },
  {
    "name": "Sun Devil Weightlifting",
    "address": "5444 E. Washington St. STE 3, Phoenix, Arizona, United States of America, 85034",
    "latitude": 33.4349109,
    "longitude": -112.019178,
    "recentMemberCount": 0
  },
  {
    "name": "White Rose Barbell Club",
    "address": "345 West Market Street, York, Pennsylvania, United States of America, 17401",
    "latitude": 39.9600244,
    "longitude": -76.7358779,
    "recentMemberCount": 1
  },
  {
    "name": "Wolf Pack Weightlifting",
    "address": "406 SE Everett Mall Way ste 4-103, Everett, Washington, United States of America, 98208",
    "latitude": 47.8853761,
    "longitude": -122.1974447,
    "recentMemberCount": 2
  },
  {
    "name": "Wolfe Strength",
    "address": "3915 McKinney, Houston, Texas, United States of America, 77023",
    "latitude": 29.743037,
    "longitude": -95.3395456,
    "recentMemberCount": 0
  },
  {
    "name": "Built By Becker Weightlifting Club",
    "address": "41639 Bostonian Place, Aldie, Virginia, United States of America, 20120",
    "latitude": 36.6878242,
    "longitude": -76.229921,
    "recentMemberCount": 3
  },
  {
    "name": "Fortis Vita Barbell Club",
    "address": "14892 Galapago St, Apt J-106, Westminster, Colorado, United States of America, 80023",
    "latitude": 39.9707529,
    "longitude": -105.0202457,
    "recentMemberCount": 2
  },
  {
    "name": "Bentley Barbell",
    "address": "561 Bloomfield Ave, Verona, New Jersey, United States of America, 07044",
    "latitude": 40.8267137,
    "longitude": -74.2359683,
    "recentMemberCount": 1
  },
  {
    "name": "Aether Weightlifting",
    "address": "2061 W 182nd St, Torrance, California, United States of America, 90504",
    "latitude": 33.865899,
    "longitude": -118.3152629,
    "recentMemberCount": 0
  },
  {
    "name": "Appalachian Barbell Club",
    "address": "6135 Jearoldstown Road, Fall Branch, Tennessee, United States of America, 37656",
    "latitude": 36.3997529,
    "longitude": -82.6320916,
    "recentMemberCount": 0
  },
  {
    "name": "Aspire Club",
    "address": "116 Brick Street SE, Bondurant, Iowa, United States of America, 50035",
    "latitude": 41.6955798,
    "longitude": -93.4545364,
    "recentMemberCount": 0
  },
  {
    "name": "ATHLEO BARBELL CLUB",
    "address": "1906 capital drive, Tyler, Texas, United States of America, 75701",
    "latitude": 32.2968096,
    "longitude": -95.3262625,
    "recentMemberCount": 2
  },
  {
    "name": "BARBARIAN BARBELL CLUB",
    "address": "16832 Saticoy Street, Van Nuys, California, United States of America, 91406",
    "latitude": 34.208464,
    "longitude": -118.4664424,
    "recentMemberCount": 4
  },
  {
    "name": "Butcher Barbell",
    "address": "1764 Knox Ave., North Augusta, South Carolina, United States of America, 29841",
    "latitude": 33.5162364,
    "longitude": -81.9563836,
    "recentMemberCount": 2
  },
  {
    "name": "Canterbury Weightlifting",
    "address": "452 N Canterbury Rd, Canterbury, Connecticut, United States of America, 06331",
    "latitude": 41.7461504,
    "longitude": -71.9599428,
    "recentMemberCount": 0
  },
  {
    "name": "Clarksville Barbell Club",
    "address": "1560 Ashland City Rd, Clarksville, Tennessee, United States of America, 37043",
    "latitude": 36.4996092,
    "longitude": -87.3370903,
    "recentMemberCount": 0
  },
  {
    "name": "Country Strong",
    "address": "442 Engle Rd., Industry, Pennsylvania, United States of America, 15052",
    "latitude": 40.678607,
    "longitude": -80.4432909,
    "recentMemberCount": 3
  },
  {
    "name": "CrossFit Spur",
    "address": "35 Hamilton Lane, Unit 2, Glenmont, New York, United States of America, 12077",
    "latitude": 42.604802,
    "longitude": -73.7695658,
    "recentMemberCount": 0
  },
  {
    "name": "Devil Dogg Barbell Club",
    "address": "275 Industrial Blvd., Pueblo West, Colorado, United States of America, 81007",
    "latitude": 38.3410787,
    "longitude": -104.7487766,
    "recentMemberCount": 0
  },
  {
    "name": "EAST ALABAMA WEIGHTLIFTING",
    "address": "812 Winterhawk Dr., Auburn, Alabama, United States of America, 36830",
    "latitude": 32.6035848,
    "longitude": -85.4766799,
    "recentMemberCount": 0
  },
  {
    "name": "FORZA WEIGHTLIFTING CLUB",
    "address": "748 E Park Ave, Libertyville, Illinois, United States of America, 60048",
    "latitude": 42.2822282,
    "longitude": -87.942753,
    "recentMemberCount": 1
  },
  {
    "name": "Gamut Barbell Club",
    "address": "1485 S County Trail, Unit 205, East Greenwich, Rhode Island, United States of America, 02818",
    "latitude": 41.4415103,
    "longitude": -71.7981275,
    "recentMemberCount": 0
  },
  {
    "name": "Iron Barbell Collective, LLC",
    "address": "4111 Lawndale Dr, Greensboro, North Carolina, United States of America, 27455",
    "latitude": 36.1267033,
    "longitude": -79.8327966,
    "recentMemberCount": 0
  },
  {
    "name": "PBJ Barbell Club",
    "address": "46001 Grand River Ave, Novi, Michigan, United States of America, 48374",
    "latitude": 42.4865068,
    "longitude": -83.5013569,
    "recentMemberCount": 0
  },
  {
    "name": "Unbridled Weightlifting",
    "address": "209 Bernie Trail, Nicholasville, Kentucky, United States of America, 40356",
    "latitude": 37.8789297,
    "longitude": -84.6230209,
    "recentMemberCount": 0
  },
  {
    "name": "Viking Barbell Club",
    "address": "635 New Park Ave, Bldg 3A3, West Hartford, Connecticut, United States of America, 06110",
    "latitude": 41.3713257,
    "longitude": -71.9701177,
    "recentMemberCount": 0
  },
  {
    "name": "A5 Weightlifting",
    "address": "1525 Half St SW, Washington, District of Columbia, United States of America, 20024",
    "latitude": 38.8712129,
    "longitude": -77.0110682,
    "recentMemberCount": 0
  },
  {
    "name": "Rose Barbell Club",
    "address": "17 newstead st, Litchfield, New Hampshire, United States of America, 03052",
    "latitude": 42.8703266,
    "longitude": -71.451727,
    "recentMemberCount": 0
  },
  {
    "name": "Willpower Strength and Conditioning",
    "address": "820 lincoln avenue, Williamsport, Pennsylvania, United States of America, 17701",
    "latitude": 41.2560885,
    "longitude": -76.9887315,
    "recentMemberCount": 0
  },
  {
    "name": "RFS Barbell",
    "address": "5410 McIntosh Rd, Sarasota, Florida, United States of America, 34233",
    "latitude": 27.2745916,
    "longitude": -82.4811474,
    "recentMemberCount": 0
  },
  {
    "name": "Rx Weightlifting Club",
    "address": "50 Tufts Street, Somerville, Massachusetts, United States of America, 02145",
    "latitude": 42.3820519,
    "longitude": -71.0887826,
    "recentMemberCount": 2
  },
  {
    "name": "S&M Strength",
    "address": "267 W 25th St, New York, New York, United States of America, 10001",
    "latitude": 40.746241,
    "longitude": -73.9965217,
    "recentMemberCount": 0
  },
  {
    "name": "SALVATION ARMY LIFTING TEAM",
    "address": "505 N. Randolph, Macomb, Illinois, United States of America, 61455",
    "latitude": 40.4637353,
    "longitude": -90.6700016,
    "recentMemberCount": 0
  },
  {
    "name": "Stoic Weightlifting Club",
    "address": "93 Worth Street, Tribeca, New York, New York, United States of America, 10013",
    "latitude": 40.7165612,
    "longitude": -74.0048985,
    "recentMemberCount": 0
  },
  {
    "name": "Superfly Barbell Club",
    "address": "5194 Betonywood Place, Dublin, Ohio, United States of America, 43016",
    "latitude": 40.0690225,
    "longitude": -83.1412918,
    "recentMemberCount": 2
  },
  {
    "name": "Superior Barbell",
    "address": "610 Lakeshore Drive, Ishpeming, Michigan, United States of America, 49849",
    "latitude": 46.4931909,
    "longitude": -87.6788221,
    "recentMemberCount": 0
  },
  {
    "name": "UCLA Weightlifting Club",
    "address": "John Wooden Center, 221 Westwood Plaza, Westwood Plaza, Los Angeles, California, United States of America, 90095",
    "latitude": 34.0662909,
    "longitude": -118.4451842,
    "recentMemberCount": 2
  },
  {
    "name": "University of Michigan Weightlifting",
    "address": "680 State Cir., Ann Arbor, Michigan, United States of America, 48108",
    "latitude": 42.234921,
    "longitude": -83.7423268,
    "recentMemberCount": 3
  },
  {
    "name": "Vice Weightlifting",
    "address": "916 N Cataract Avenue, San Dimas, California, United States of America, 91773",
    "latitude": 34.1179272,
    "longitude": -117.8113743,
    "recentMemberCount": 3
  },
  {
    "name": "Victory Mode Weightlifting",
    "address": "20101 Lyons Rd, Boca Raton, Florida, United States of America, 33434",
    "latitude": 26.3767656,
    "longitude": -80.1894273,
    "recentMemberCount": 1
  },
  {
    "name": "Westminster Barbell",
    "address": "61 John Street, Westminster, Maryland, United States of America, 21157",
    "latitude": 39.5783124,
    "longitude": -76.9946912,
    "recentMemberCount": 0
  },
  {
    "name": "1Kilo",
    "address": "5006 S. Rogers St, Bloomington, Indiana, United States of America, 47404",
    "latitude": 39.166123,
    "longitude": -86.5387001,
    "recentMemberCount": 4
  },
  {
    "name": "Rock Steady Barbell",
    "address": "1620 1st Ave N, Fargo, North Dakota, United States of America, 58102",
    "latitude": 46.8773302,
    "longitude": -96.806641,
    "recentMemberCount": 0
  },
  {
    "name": "Rocket City Lifting",
    "address": "235 Willow Street, Titusville, Florida, United States of America, 32780",
    "latitude": 28.5582761,
    "longitude": -80.800064,
    "recentMemberCount": 0
  },
  {
    "name": "Sled-Dog Weightlifting",
    "address": "5s471 Deer Ridge Path, Big Rock, Illinois, United States of America, 60511",
    "latitude": 41.7584014,
    "longitude": -88.5543875,
    "recentMemberCount": 0
  },
  {
    "name": "Team Atlanta",
    "address": "1874 Piedmont Rd. NE, Suite 420-D, Atlanta, Georgia, United States of America, 30324",
    "latitude": 33.8154569,
    "longitude": -84.3595204,
    "recentMemberCount": 0
  },
  {
    "name": "Wilmington Strength",
    "address": "5424 Oleander Dr #6, Wilmington, North Carolina, United States of America, 28403",
    "latitude": 34.2221294,
    "longitude": -77.8836479,
    "recentMemberCount": 0
  },
  {
    "name": "GARAGE STRENGTH",
    "address": "8832 Allentown Pike, Fleetwood, Pennsylvania, United States of America, 19522",
    "latitude": 40.4464821,
    "longitude": -75.8239021,
    "recentMemberCount": 3
  },
  {
    "name": "JP Weightlifting",
    "address": "The Ogre Compound, 404 Willis Pass, Mt. Juliet, Tennessee, United States of America, 37122",
    "latitude": 36.1951783,
    "longitude": -86.5278316,
    "recentMemberCount": 0
  },
  {
    "name": "Mighty Oak Athletic",
    "address": "6424 S. Cass Ave, Westmont, Illinois, United States of America, 60559",
    "latitude": 41.7717817,
    "longitude": -87.9745854,
    "recentMemberCount": 0
  },
  {
    "name": "Rain City Weightlifting Club",
    "address": "2227 4th Ave S, Seattle, Washington, United States of America, 98134",
    "latitude": 47.5830728,
    "longitude": -122.3293784,
    "recentMemberCount": 0
  },
  {
    "name": "Rambo Barbell",
    "address": "23 Desai Ln, Ringgold, Georgia, United States of America, 30736",
    "latitude": 34.9161537,
    "longitude": -85.1481652,
    "recentMemberCount": 0
  },
  {
    "name": "Reach Your Potential Training",
    "address": "1540 West Park Ave, Tinton Falls, New Jersey, United States of America, 07712",
    "latitude": 40.2575922,
    "longitude": -74.0887574,
    "recentMemberCount": 1
  },
  {
    "name": "Renaissance Periodization",
    "address": "855 S. High St., Harrisonburg, Virginia, United States of America, 22801",
    "latitude": 38.4411557,
    "longitude": -78.8839139,
    "recentMemberCount": 1
  },
  {
    "name": "The Strength Tank Weightlifting Club",
    "address": "7550 Miramar Road, Suite 400, San Diego, California, United States of America, 92126",
    "latitude": 32.9183341,
    "longitude": -117.1465131,
    "recentMemberCount": 2
  },
  {
    "name": "Wheelhouse Academy",
    "address": "2424 4TH AVE S, BIRMINGHAM, Alabama, United States of America, 35233",
    "latitude": 33.5119563,
    "longitude": -86.7961654,
    "recentMemberCount": 1
  },
  {
    "name": "Winston Salem Weightlifting",
    "address": "2020 Hollyrood St, Winston Salem, North Carolina, United States of America, 27127",
    "latitude": 36.0719727,
    "longitude": -80.2446743,
    "recentMemberCount": 0
  },
  {
    "name": "ATU Lifting Club",
    "address": "1306 North El Paso Ave., Russellville, Arkansas, United States of America, 72801",
    "latitude": 35.2909093,
    "longitude": -93.1363579,
    "recentMemberCount": 0
  },
  {
    "name": "COASTAL EMPIRE WEIGHTLIFTING",
    "address": "2653 Causton Bluff, Savannah, Georgia, United States of America, 31404",
    "latitude": 32.0650681,
    "longitude": -81.0464663,
    "recentMemberCount": 2
  },
  {
    "name": "Eastside Barbell",
    "address": "871 Shelley St, Springfield, Oregon, United States of America, 97477",
    "latitude": 44.0643346,
    "longitude": -123.0397403,
    "recentMemberCount": 8
  },
  {
    "name": "Queens Barbell",
    "address": "39-63 63rd St., Woodside, New York, United States of America, 11377",
    "latitude": 40.7411493,
    "longitude": -73.9025383,
    "recentMemberCount": 1
  },
  {
    "name": "Big Gratitude Barbell",
    "address": "2809 Ackley Avenue, Richmond, Virginia, United States of America, 23228",
    "latitude": 36.6878242,
    "longitude": -76.229921,
    "recentMemberCount": 0
  },
  {
    "name": "Maximum Effort Barbel Club",
    "address": "195 Lee Oak Dr., Hodgenville, Kentucky, United States of America, 42748",
    "latitude": 37.5705373,
    "longitude": -85.7497244,
    "recentMemberCount": 1
  },
  {
    "name": "Motor City Barbell",
    "address": "4915 Leafdale Blvd, Royal Oak, Michigan, United States of America, 48071",
    "latitude": 42.5341854,
    "longitude": -83.1759918,
    "recentMemberCount": 2
  },
  {
    "name": "Big Pull Barbell",
    "address": "5 River Rd, Suite 6, WIlton, United States of America, 06897",
    "latitude": 41.2041659,
    "longitude": -73.4368535,
    "recentMemberCount": 1
  },
  {
    "name": "Fortified Strength",
    "address": "2411 Old Crow Canyon Rd., Suite O, San Ramon, California, United States of America, 94583",
    "latitude": 37.7591651,
    "longitude": -121.9576755,
    "recentMemberCount": 8
  },
  {
    "name": "Powerhouse Functional Fitness",
    "address": "1021 George Rogers Blvd, Columbia, South Carolina, United States of America, 29201",
    "latitude": 33.9772736,
    "longitude": -81.0164529,
    "recentMemberCount": 2
  },
  {
    "name": "Price Barbell",
    "address": "933 Mason Street Ste B, CrossFit 7x7, San Francisco, California, United States of America, 94129",
    "latitude": 37.7961977,
    "longitude": -122.4623936,
    "recentMemberCount": 0
  },
  {
    "name": "Seven Pound Lifting",
    "address": "20277 SE Brewer Terrace, PORTLAND, Oregon, United States of America, 97233",
    "latitude": 45.5134733,
    "longitude": -122.5027018,
    "recentMemberCount": 0
  },
  {
    "name": "Stone Age Barbell Club",
    "address": "10200 S. Kedzie Ave, Evergreen Park, Illinois, United States of America, 60805",
    "latitude": 41.707416,
    "longitude": -87.701497,
    "recentMemberCount": 1
  },
  {
    "name": "West Essex Barbell Club",
    "address": "1376 Pompton Avenue, Cedar Grove, New Jersey, United States of America, 07009",
    "latitude": 40.8765873,
    "longitude": -74.2402413,
    "recentMemberCount": 0
  },
  {
    "name": "Engineering Strength",
    "address": "1405 Racimo Dr, Sarasota, Florida, United States of America, 34240",
    "latitude": 27.349476,
    "longitude": -82.417327,
    "recentMemberCount": 0
  },
  {
    "name": "MaxOut Barbell",
    "address": "709 S Elk Street, Douglas, Georgia, United States of America, 31533",
    "latitude": 31.5014913,
    "longitude": -82.8527102,
    "recentMemberCount": 0
  },
  {
    "name": "PAWSitive Barbell Club",
    "address": "3 Robinson Rd, A5, Bow, New Hampshire, United States of America, 03304",
    "latitude": 43.1449448,
    "longitude": -71.4961928,
    "recentMemberCount": 0
  },
  {
    "name": "Shinshengumi Weightlifting",
    "address": "1015 Camden Ave, Rock Hill, South Carolina, United States of America, 29732",
    "latitude": 34.9421931,
    "longitude": -81.0352699,
    "recentMemberCount": 0
  },
  {
    "name": "Siuslaw Strength and Conditioning",
    "address": "1732 laurel place unit C, Florence, Oregon, United States of America, 97439",
    "latitude": 43.9939671,
    "longitude": -124.1031782,
    "recentMemberCount": 0
  },
  {
    "name": "South Georgia Barbell",
    "address": "105 Rowland Dr, Moultrie, Georgia, United States of America, 31768",
    "latitude": 31.1798475,
    "longitude": -83.7656108,
    "recentMemberCount": 1
  },
  {
    "name": "Annex Weightlifting",
    "address": "2431 Orange Ave, Signal Hill, California, United States of America, 90755",
    "latitude": 33.8017291,
    "longitude": -118.1764243,
    "recentMemberCount": 1
  },
  {
    "name": "CROSSFIT FORT VANCOUVER BARBELL CLUB",
    "address": "223 E. Reserve St. #101, Vancouver, Washington, United States of America, 98661",
    "latitude": 45.6469127,
    "longitude": -122.6237148,
    "recentMemberCount": 2
  },
  {
    "name": "DSSC Weightlifting",
    "address": "1558 B HWY 54 W, Fayetteville, Georgia, United States of America, 30214",
    "latitude": 33.4482762,
    "longitude": -84.4804274,
    "recentMemberCount": 0
  },
  {
    "name": "Kairos Barbell Club",
    "address": "4659 SW Nackman Terrace, Port Saint Lucie, Florida, United States of America, 34953",
    "latitude": 27.2077218,
    "longitude": -80.3423199,
    "recentMemberCount": 0
  },
  {
    "name": "KS Barbell Club",
    "address": "545 Albany Shaker Rd, Kindred Strength, Albany, New York, United States of America, 12211",
    "latitude": 42.705662,
    "longitude": -73.7688274,
    "recentMemberCount": 0
  },
  {
    "name": "R3P'D Weightlifting",
    "address": "1409 N EUZELLA TERRACE, MUSTANG, Oklahoma, United States of America, 73064",
    "latitude": 35.4042613,
    "longitude": -97.7138984,
    "recentMemberCount": 1
  },
  {
    "name": "REDZONE WEIGHTLIFTING CLUB",
    "address": "3 Simm Lane - Unit 3A, Newtown, Connecticut, United States of America, 06470",
    "latitude": 41.3713257,
    "longitude": -71.9701177,
    "recentMemberCount": 1
  },
  {
    "name": "ST. CROIX BARBELL CLUB",
    "address": "2801 Harvey Street, Hudson, Wisconsin, United States of America, 54016",
    "latitude": 44.9477488,
    "longitude": -92.7121078,
    "recentMemberCount": 0
  },
  {
    "name": "Strength Chamber",
    "address": "171 Aunt Polly Court, Orlando, Florida, United States of America, 32828",
    "latitude": 28.5474967,
    "longitude": -81.1862178,
    "recentMemberCount": 0
  },
  {
    "name": "Team Florida St. Cloud",
    "address": "2000 Bulldog Lane, St. Cloud, Florida, United States of America, 34769",
    "latitude": 28.2407573,
    "longitude": -81.2800386,
    "recentMemberCount": 1
  },
  {
    "name": "TEAM PENDRAGON",
    "address": "3900 Greenville Rd, Cortland, Ohio, United States of America, 44410",
    "latitude": 41.3555623,
    "longitude": -80.7187533,
    "recentMemberCount": 1
  },
  {
    "name": "Team SAW",
    "address": "United States of America",
    "latitude": 39.7837304,
    "longitude": -100.445882,
    "recentMemberCount": 3
  },
  {
    "name": "Rhode Island Performance",
    "address": "425 Washington Street, Providence, Rhode Island, United States of America, 02903",
    "latitude": 41.8180618,
    "longitude": -71.4241471,
    "recentMemberCount": 3
  },
  {
    "name": "Spoon Barbell Club",
    "address": "537 E. Polk Street, Richardson, Texas, United States of America, 75081",
    "latitude": 32.947442,
    "longitude": -96.7210693,
    "recentMemberCount": 4
  },
  {
    "name": "ALPHA BARBELL",
    "address": "2705 Auburn Way N, Auburn, Washington, United States of America, 98002",
    "latitude": 47.3311905,
    "longitude": -122.222242,
    "recentMemberCount": 2
  },
  {
    "name": "CFW WEIGHTLIFTING",
    "address": "25589 SW Canyon Creek, Suite 100, Wilsonville, Oregon, United States of America, 97070",
    "latitude": 45.3075647,
    "longitude": -122.7717453,
    "recentMemberCount": 0
  },
  {
    "name": "DEUCE Weightlifting",
    "address": "110 Lincoln Blvd, Playa Del Rey, Washington, United States of America, 90291",
    "latitude": 33.9946815,
    "longitude": -118.465277,
    "recentMemberCount": 0
  },
  {
    "name": "Grand Junction Weightlifting Club",
    "address": "2314 Highway 6 and 50, Grand Junction, Colorado, United States of America, 81505",
    "latitude": 39.1088236,
    "longitude": -108.5977727,
    "recentMemberCount": 0
  },
  {
    "name": "Invincible Barbell",
    "address": "2310 Mission St, San Francisco, California, United States of America, 94110",
    "latitude": 37.7599931,
    "longitude": -122.41937,
    "recentMemberCount": 1
  },
  {
    "name": "Perkiomen School Weightlifting Club",
    "address": "200 Seminary Street, Pennsburg, Pennsylvania, United States of America, 18073",
    "latitude": 40.3996583,
    "longitude": -75.5037936,
    "recentMemberCount": 0
  },
  {
    "name": "Portland Strength Collective",
    "address": "1225 SE Grand Avenue, Portland, Oregon, United States of America, 97214",
    "latitude": 45.5141329,
    "longitude": -122.6608807,
    "recentMemberCount": 1
  },
  {
    "name": "Steadfast Barbell",
    "address": "228 Gay Street, Plain City, Ohio, United States of America, 43064",
    "latitude": 40.106774,
    "longitude": -83.267248,
    "recentMemberCount": 0
  },
  {
    "name": "Stegelmann Performance",
    "address": "7411 Aspect Drive Apt. 115, Granger, Indiana, United States of America, 46530",
    "latitude": 41.7394367,
    "longitude": -86.149787,
    "recentMemberCount": 1
  },
  {
    "name": "Swamp Cabbage Barbell Club",
    "address": "14 QUALITY COURT, COLUMBA, South Carolina, United States of America, 29229",
    "latitude": 34.1466533,
    "longitude": -80.8969883,
    "recentMemberCount": 1
  },
  {
    "name": "system barbell",
    "address": "1917 atlantic ave, manasquan, New Jersey, United States of America, 08736",
    "latitude": 40.1291732,
    "longitude": -74.056499,
    "recentMemberCount": 0
  },
  {
    "name": "TEAM HOUSTON",
    "address": "2102 Victoria Court, League City, Texas, United States of America, 77573",
    "latitude": 29.4910729,
    "longitude": -95.1183464,
    "recentMemberCount": 4
  },
  {
    "name": "Fairmont Weightlifting",
    "address": "900 Johnson St, Fairmont, Minnesota, United States of America, 56031",
    "latitude": 43.6362261,
    "longitude": -94.4490072,
    "recentMemberCount": 0
  },
  {
    "name": "Sand Dunes Barbell",
    "address": "316 Old Blue Mountain Road, Building C, Unit A/B, santa rosa beach, Florida, United States of America, 32459",
    "latitude": 30.3582787,
    "longitude": -86.2007224,
    "recentMemberCount": 1
  },
  {
    "name": "Tevis Weightlifting Club",
    "address": "330 Weaver Road, Suite 100, Florence, Kentucky, United States of America, 41042",
    "latitude": 38.9896877,
    "longitude": -84.6726118,
    "recentMemberCount": 0
  },
  {
    "name": "Ferus Barbell",
    "address": "7446 Lazy Trl, San Antonio, Texas, United States of America, 78250",
    "latitude": 29.5143435,
    "longitude": -98.676081,
    "recentMemberCount": 0
  },
  {
    "name": "Floyd Farms Weightlifting",
    "address": "656 Airline rd, McDonough, Georgia, United States of America, 30252",
    "latitude": 33.4610612,
    "longitude": -84.0994396,
    "recentMemberCount": 1
  },
  {
    "name": "SAS WEIGHTLIFTING CLUB",
    "address": "244 S Tucson Blvd., Tucson, Arizona, United States of America, 85716",
    "latitude": 32.2196555,
    "longitude": -110.9357027,
    "recentMemberCount": 1
  },
  {
    "name": "Standard Strength",
    "address": "2096 Winchester Blvd, Campbell, California, United States of America, 95008",
    "latitude": 37.2855102,
    "longitude": -121.9496287,
    "recentMemberCount": 3
  },
  {
    "name": "Good Fortune Barbell",
    "address": "34C Industrial Park Rd, Niantic, Connecticut, United States of America, 06357",
    "latitude": 41.3713257,
    "longitude": -71.9701177,
    "recentMemberCount": 0
  },
  {
    "name": "Gwenice Beach Barbell",
    "address": "1 Olympic Plaza, Chicago, Illinois, United States of America, 60608",
    "latitude": 41.8504257,
    "longitude": -87.6657455,
    "recentMemberCount": 0
  },
  {
    "name": "Train Harder Barbell Club",
    "address": "1017 Gunn Hwy, Odessa, Florida, United States of America, 33556",
    "latitude": 28.1823151,
    "longitude": -82.5922421,
    "recentMemberCount": 5
  },
  {
    "name": "Death Row Barbell",
    "address": "500 John Wright Dr NW, Huntsville, AL 35805, 2821 Newby Rd SW Suite E, Huntsville, AL 35805, HUNTSVILLE, Alabama, United States of America, 35801",
    "latitude": 34.7281834,
    "longitude": -86.5725055,
    "recentMemberCount": 0
  },
  {
    "name": "Echo Weightlifting",
    "address": "14080 Sullyfield Circle E&F, Chantilly, Virginia, United States of America, 20151",
    "latitude": 38.8941543,
    "longitude": -77.4311513,
    "recentMemberCount": 0
  },
  {
    "name": "Exclusive Club Weightlifting",
    "address": "1400 NW 65th Ave Unit G, Plantation, Florida, United States of America, 33313",
    "latitude": 26.1495439,
    "longitude": -80.2251722,
    "recentMemberCount": 3
  },
  {
    "name": "PORTLAND OREGON WEIGHTLIFTING",
    "address": "13780 SW Galbreath Drive Building D, Sherwood, Oregon, United States of America, 97140",
    "latitude": 45.3543284,
    "longitude": -122.8512881,
    "recentMemberCount": 1
  },
  {
    "name": "PXM Weightlifting",
    "address": "5757 N Ridge Ave, Chicago, Illinois, United States of America, 60660",
    "latitude": 41.986657,
    "longitude": -87.664847,
    "recentMemberCount": 0
  },
  {
    "name": "West Virginia Weightlifting",
    "address": "3119 University Ave - Ste C, Morgantown, West Virginia, United States of America, 26508",
    "latitude": 39.6335223,
    "longitude": -79.8983988,
    "recentMemberCount": 0
  },
  {
    "name": "Why Not? Weightlifting",
    "address": "465 Washington St, Billings, Montana, United States of America, 59101",
    "latitude": 45.7613224,
    "longitude": -108.5096751,
    "recentMemberCount": 0
  },
  {
    "name": "Battery Barbenders",
    "address": "60 New Street, New York, New York, United States of America, 10004",
    "latitude": 40.7056117,
    "longitude": -74.0122165,
    "recentMemberCount": 1
  },
  {
    "name": "BlueWave Weightlifting",
    "address": "7523 Chapel Ave, Fort Worth, Texas, United States of America, 76116",
    "latitude": 32.7215494,
    "longitude": -97.4453623,
    "recentMemberCount": 8
  },
  {
    "name": "Broadwing Weightlifting",
    "address": "199 Lynn Haven Dr, Martinsburg, West Virginia, United States of America, 25404",
    "latitude": 39.4856463,
    "longitude": -77.9472512,
    "recentMemberCount": 0
  },
  {
    "name": "Team Variant",
    "address": "410 Peterson Rd, Libertyville, Illinois, United States of America, 60048",
    "latitude": 42.3061545,
    "longitude": -87.9698293,
    "recentMemberCount": 1
  },
  {
    "name": "UNIVERSITY OF TEXAS",
    "address": "6448 E HWY 290 B-108, Austin, Texas, United States of America, 78723",
    "latitude": 30.299977,
    "longitude": -97.6921414,
    "recentMemberCount": 2
  },
  {
    "name": "Wear The Crown Barbell",
    "address": "3131 thousand oaks, san antonio, Texas, United States of America, 78247",
    "latitude": 29.5734648,
    "longitude": -98.4365943,
    "recentMemberCount": 0
  },
  {
    "name": "12 Labours Barbell",
    "address": "1789 McGuckian St, Annapolis, Maryland, United States of America, 21401",
    "latitude": 38.978356,
    "longitude": -76.5209617,
    "recentMemberCount": 1
  },
  {
    "name": "Belmont Barbell Club",
    "address": "81 McAdenville Road, Belmont, North Carolina, United States of America, 28012",
    "latitude": 35.2558881,
    "longitude": -81.0490133,
    "recentMemberCount": 0
  },
  {
    "name": "Bulldog Weightlifting Club",
    "address": "2030 E. College Way, Olathe, Kansas, United States of America, 66062",
    "latitude": 38.8743408,
    "longitude": -94.7845598,
    "recentMemberCount": 0
  },
  {
    "name": "Corvallis Strength",
    "address": "33821 SE Eastgate Circle, Corvallis, Oregon, United States of America, 97333",
    "latitude": 44.5645659,
    "longitude": -123.2620435,
    "recentMemberCount": 1
  },
  {
    "name": "Cully Strength",
    "address": "5224 NE 42nd Ave, Portland, Oregon, United States of America, 97218",
    "latitude": 45.5608159,
    "longitude": -122.6201286,
    "recentMemberCount": 2
  },
  {
    "name": "Cuppa Joe Weightlifting",
    "address": "115 Old Route 9, Fishkill, New York, United States of America, 12524",
    "latitude": 41.5486428,
    "longitude": -73.9032701,
    "recentMemberCount": 1
  },
  {
    "name": "DRAGON BARBELL",
    "address": "1605 Hart St. Suite 100, Southlake, Texas, United States of America, 76092",
    "latitude": 32.9427428,
    "longitude": -97.1456945,
    "recentMemberCount": 0
  },
  {
    "name": "Evolution Barbell",
    "address": "965 59th Avenue, Unit C, Greeley, Colorado, United States of America, 80634",
    "latitude": 40.411405,
    "longitude": -104.7515382,
    "recentMemberCount": 1
  },
  {
    "name": "Southside Strength and Fitness - AK",
    "address": "11901 Industry Way, Anchorage, Alaska, United States of America, 99515",
    "latitude": 61.113133,
    "longitude": -149.863609,
    "recentMemberCount": 0
  },
  {
    "name": "Stonehenge Weightlifting",
    "address": "12112 Anderson Mill Road, Building 2 Suite A, Cedar Park, Texas, United States of America, 78613",
    "latitude": 30.46102,
    "longitude": -97.830176,
    "recentMemberCount": 4
  },
  {
    "name": "Tacoma Strength Weightlifting",
    "address": "2354 Jefferson Ave, Tacoma, Washington, United States of America, 98402",
    "latitude": 47.2400865,
    "longitude": -122.4392022,
    "recentMemberCount": 0
  },
  {
    "name": "TEXAS BARBELL CLUB",
    "address": "6448 E HWY 290 B-108, Austin, Texas, United States of America, 78723",
    "latitude": 30.299977,
    "longitude": -97.6921414,
    "recentMemberCount": 4
  },
  {
    "name": "Vicious Pit Barbell Club",
    "address": "312 Lightfoot Rd Unit A, Williamsburg, Virginia, United States of America, 23188",
    "latitude": 36.6878242,
    "longitude": -76.229921,
    "recentMemberCount": 2
  },
  {
    "name": "Virelo Weightlifting",
    "address": "106 Kristen Lane, Hazel Green, Alabama, United States of America, 35750",
    "latitude": 34.9353196,
    "longitude": -86.5746306,
    "recentMemberCount": 0
  },
  {
    "name": "Vision Weightlifting",
    "address": "19291 Ward Rd., Caldwell, Idaho, United States of America, 83605",
    "latitude": 43.6513361,
    "longitude": -116.6233224,
    "recentMemberCount": 0
  },
  {
    "name": "WESLEY WEIGHTLIFTERS",
    "address": "5400 King Hill Ave., SAINT JOSEPH, Missouri, United States of America, 64504",
    "latitude": 39.6983383,
    "longitude": -94.8649871,
    "recentMemberCount": 2
  },
  {
    "name": "West Coast Weightlifting",
    "address": "130 Denny Way, El Cajon, California, United States of America, 92020",
    "latitude": 32.7935403,
    "longitude": -116.9721388,
    "recentMemberCount": 2
  },
  {
    "name": "West Georgia Weightlifting",
    "address": "200 S Aycock Street, carrollton, Georgia, United States of America, 30117",
    "latitude": 33.5766297,
    "longitude": -85.0798852,
    "recentMemberCount": 0
  },
  {
    "name": "Wild Barbell",
    "address": "3226 Maybank Hwy, Unit F12, Johns Island, South Carolina, United States of America, 29455",
    "latitude": 32.7031033,
    "longitude": -80.0899043,
    "recentMemberCount": 0
  },
  {
    "name": "WOLF BACK ON TRACK INC.",
    "address": "7901 4th St N STE: 300, Wolfback On Track, Florida, United States of America, 33702",
    "latitude": 27.8413236,
    "longitude": -82.6518487,
    "recentMemberCount": 0
  },
  {
    "name": "Bruin Barbell",
    "address": "2131 John Wooden Center, Los Angeles, California, United States of America, 90095",
    "latitude": 34.067564,
    "longitude": -118.4438435,
    "recentMemberCount": 0
  },
  {
    "name": "Aztec Weightlifting",
    "address": "1524 The Paseo, Kansas City, Missouri, United States of America, 64108",
    "latitude": 39.0942037,
    "longitude": -94.5652849,
    "recentMemberCount": 1
  },
  {
    "name": "CDA Heart and Barbell Club",
    "address": "301 N 4th St, Coeur d' Alene, Idaho, United States of America, 83814",
    "latitude": 47.6752659,
    "longitude": -116.7813634,
    "recentMemberCount": 1
  },
  {
    "name": "DB weightlifting/ Savage strength barbell",
    "address": "749 new ludlow rd, South Hadley, Massachusetts, United States of America, 01075",
    "latitude": 42.2156059,
    "longitude": -72.5561506,
    "recentMemberCount": 0
  },
  {
    "name": "Defy Gravity",
    "address": "1242 Birchwood dr., Sunnyvale, California, United States of America, 94089",
    "latitude": 37.4038483,
    "longitude": -121.992387,
    "recentMemberCount": 0
  },
  {
    "name": "Del Mar Power",
    "address": "15770 San Andres Dr, Del Mar, California, United States of America, 92014",
    "latitude": 32.9578428,
    "longitude": -117.2525044,
    "recentMemberCount": 0
  },
  {
    "name": "Ferox Strength & Performance",
    "address": "23203 cypress trail dr, lutz, Florida, United States of America, 33549",
    "latitude": 28.1310894,
    "longitude": -82.4528747,
    "recentMemberCount": 0
  },
  {
    "name": "Fifty-One Fifty Weightlifting Club",
    "address": "2050 W Guadalupe Rd, Suite 7, Mesa, Arizona, United States of America, 85202",
    "latitude": 33.3720899,
    "longitude": -111.8766691,
    "recentMemberCount": 0
  },
  {
    "name": "Fondy Weightlifting",
    "address": "801 Campus Drive, Fond du Lac, Wisconsin, United States of America, 54935",
    "latitude": 43.7880584,
    "longitude": -88.4178606,
    "recentMemberCount": 1
  },
  {
    "name": "FonockFit Barbell Club",
    "address": "1811 SW 22nd St., Cape Coral, Florida, United States of America, 33991",
    "latitude": 26.6115245,
    "longitude": -82.0121062,
    "recentMemberCount": 0
  },
  {
    "name": "FORGE Weightlifting",
    "address": "220 E Constituition Ave, Georgetown, Kentucky, United States of America, 40324",
    "latitude": 38.2245111,
    "longitude": -84.5477321,
    "recentMemberCount": 0
  },
  {
    "name": "Fortis Unum Barbell Club",
    "address": "9 Apple Ct, Homosassa, Florida, United States of America, 34446",
    "latitude": 28.7568972,
    "longitude": -82.5333086,
    "recentMemberCount": 0
  },
  {
    "name": "FORTIUS BARBELL CLUB",
    "address": "3015 Columbia Ave, Western Corners Center, Lancaster, Pennsylvania, United States of America, 17603",
    "latitude": 40.0352367,
    "longitude": -76.3395363,
    "recentMemberCount": 0
  },
  {
    "name": "FULL CIRCLE PERFORMANCE",
    "address": "821 12th St W, Bradenton, Florida, United States of America, 34205",
    "latitude": 27.4926164,
    "longitude": -82.573407,
    "recentMemberCount": 2
  },
  {
    "name": "Full Steam Barbell",
    "address": "6227 Lee Hwy., Suite 100, Chattanooga, Tennessee, United States of America, 37421",
    "latitude": 35.0247726,
    "longitude": -85.1498666,
    "recentMemberCount": 0
  },
  {
    "name": "Giffys Barbell Club",
    "address": "855 3rd St SW, STE 2, New Brighton, Minnesota, United States of America, 55112",
    "latitude": 45.0580592,
    "longitude": -93.2014243,
    "recentMemberCount": 1
  },
  {
    "name": "Gratitude Strength",
    "address": "2092 NE Aloclek Dr. Unit 519, Hillsboro, Oregon, United States of America, 97124",
    "latitude": 45.5358597,
    "longitude": -122.9531864,
    "recentMemberCount": 0
  },
  {
    "name": "Parish Barbell Club",
    "address": "2319 Paris road, Chalmette, Louisiana, United States of America, 70043",
    "latitude": 29.9397633,
    "longitude": -89.9648457,
    "recentMemberCount": 0
  },
  {
    "name": "Stomp Weightlifting",
    "address": "1606 Missile Rd, Wichita Falls, Texas, United States of America, 76306",
    "latitude": 33.9828012,
    "longitude": -98.5210022,
    "recentMemberCount": 1
  },
  {
    "name": "Team Juanatas-Bowens",
    "address": "1006 Calloway Dr., Suite A, Bakersfield, California, United States of America, 93312",
    "latitude": 35.4073794,
    "longitude": -119.1195437,
    "recentMemberCount": 4
  },
  {
    "name": "1904 BARBELL",
    "address": "5745 Kearny Villa Rd, Suite 113, San Diego, California, United States of America, 92123",
    "latitude": 32.7992617,
    "longitude": -117.1367827,
    "recentMemberCount": 0
  },
  {
    "name": "EFD Holland Barbell",
    "address": "716 Chicago Drive, Suite 430, Holland, Michigan, United States of America, 49423",
    "latitude": 42.7705591,
    "longitude": -86.1076325,
    "recentMemberCount": 2
  },
  {
    "name": "Big Bend Strength and Conditioning",
    "address": "3185 Capital Circle NE, Tallahassee, Florida, United States of America, 32312",
    "latitude": 30.4943191,
    "longitude": -84.2448391,
    "recentMemberCount": 0
  },
  {
    "name": "DC WEIGHTLIFTING CLUB",
    "address": "1240 Upshur Street NW, Washington, District of Columbia, United States of America, 20011",
    "latitude": 38.9416108,
    "longitude": -77.0276951,
    "recentMemberCount": 1
  },
  {
    "name": "FTF Barbell",
    "address": "41 Ridgeway Rd, Waverly Hall, Georgia, United States of America, 31831",
    "latitude": 32.6828592,
    "longitude": -84.7377094,
    "recentMemberCount": 0
  },
  {
    "name": "Gaines' Gym",
    "address": "3808 Tanglewood Dr, Bryan, Texas, United States of America, 77802",
    "latitude": 30.6455096,
    "longitude": -96.33872,
    "recentMemberCount": 1
  },
  {
    "name": "GREAT LAKES WEIGHTLIFTING CLUB",
    "address": "26001 Miles Rd Ste 3, Warrensville, Ohio, United States of America, 44128",
    "latitude": 41.4445678,
    "longitude": -81.5431051,
    "recentMemberCount": 0
  },
  {
    "name": "Grounds & Pounds WLC",
    "address": "7811 Estate Hill St, Raleigh, North Carolina, United States of America, 27617",
    "latitude": 35.9161136,
    "longitude": -78.7757127,
    "recentMemberCount": 0
  },
  {
    "name": "Group III Barbell",
    "address": "6721 Seybold Rd, Madison, Wisconsin, United States of America, 53719",
    "latitude": 43.0518601,
    "longitude": -89.4970912,
    "recentMemberCount": 1
  },
  {
    "name": "Gryphon Strength Barbell",
    "address": "69 Brookside Ave Suite 200, Chester, New York, United States of America, 10958",
    "latitude": 41.3855978,
    "longitude": -74.4285752,
    "recentMemberCount": 1
  },
  {
    "name": "GSC Barbell",
    "address": "11207 123rd Lane NE, C-24, Kirkland, Washington, United States of America, 98033",
    "latitude": 47.6780321,
    "longitude": -122.1915104,
    "recentMemberCount": 2
  },
  {
    "name": "HERCULES BBC",
    "address": "4364 Early Duke Street, Salt Lake City, Utah, United States of America, 84120",
    "latitude": 40.6756318,
    "longitude": -112.0125466,
    "recentMemberCount": 0
  },
  {
    "name": "Highland Weightlifting",
    "address": "29 Chevy lane, Weaverville, North Carolina, United States of America, 28787",
    "latitude": 35.7473379,
    "longitude": -82.5572157,
    "recentMemberCount": 0
  },
  {
    "name": "Houston Weightlifting Academy",
    "address": "1610 W 22nd St, Houston, Texas, United States of America, 77008",
    "latitude": 29.805562,
    "longitude": -95.4276552,
    "recentMemberCount": 2
  },
  {
    "name": "Hunger in the Wild",
    "address": "1350 Manufacturing Street Suite 204, Dallas, Texas, United States of America, 75207",
    "latitude": 32.7883805,
    "longitude": -96.820992,
    "recentMemberCount": 1
  },
  {
    "name": "Impetus Barbell",
    "address": "1605 Hart St. Suite 100, Southlake, Texas, United States of America, 76092",
    "latitude": 32.9427428,
    "longitude": -97.1456945,
    "recentMemberCount": 0
  },
  {
    "name": "Iowa Elite",
    "address": "5335 Carey Avenue, Davenport, Iowa, United States of America, 52807",
    "latitude": 41.5759693,
    "longitude": -90.5590949,
    "recentMemberCount": 0
  },
  {
    "name": "Ironclad Barbell Club",
    "address": "30 webb street, cranston, Rhode Island, United States of America, 02920",
    "latitude": 41.7530558,
    "longitude": -71.4474377,
    "recentMemberCount": 0
  },
  {
    "name": "Jerks That Jerk",
    "address": "25211 Dunvegan Sq, Chantilly, Virginia, United States of America, 20152",
    "latitude": 36.6878242,
    "longitude": -76.229921,
    "recentMemberCount": 1
  },
  {
    "name": "LHO Barbell",
    "address": "1565 Oakbridge Terrace, Suite C, Powhatan, Virginia, United States of America, 23139",
    "latitude": 36.6878242,
    "longitude": -76.229921,
    "recentMemberCount": 0
  },
  {
    "name": "Tribe Barbell Club",
    "address": "10712 Reagan St, Ste B, Los Alamitos, California, United States of America, 90720",
    "latitude": 33.7936645,
    "longitude": -118.0732603,
    "recentMemberCount": 0
  },
  {
    "name": "BASA Weightlifting",
    "address": "8912 Yellow Brick Rd, Suite B, Rosedale, Maryland, United States of America, 21237",
    "latitude": 39.3400017,
    "longitude": -76.495583,
    "recentMemberCount": 7
  },
  {
    "name": "Kaizen Barbell",
    "address": "7318 Remegan Road, Houston, Texas, United States of America, 77033",
    "latitude": 29.6771191,
    "longitude": -95.3388722,
    "recentMemberCount": 0
  },
  {
    "name": "IRON KITCHEN",
    "address": "1100 Wilson Suite #7, Pinedale, Wyoming, United States of America, 82941",
    "latitude": 42.8659826,
    "longitude": -109.8695602,
    "recentMemberCount": 1
  },
  {
    "name": "Kaz Barbell Club",
    "address": "4212 West US Hwy12, Helena, Montana, United States of America, 59601",
    "latitude": 46.5899345,
    "longitude": -112.0421437,
    "recentMemberCount": 0
  },
  {
    "name": "Kilo Barbell Club",
    "address": "17437 N 71st dr, Suite 103-105, Glendale, Arizona, United States of America, 85308",
    "latitude": 33.6597514,
    "longitude": -112.1805635,
    "recentMemberCount": 1
  },
  {
    "name": "Lakeville South Strength",
    "address": "21135 Jacquard Ave. S., Lakeville, Minnesota, United States of America, 55044",
    "latitude": 44.6802791,
    "longitude": -93.2508774,
    "recentMemberCount": 1
  },
  {
    "name": "Lebanon Barbell Club",
    "address": "1243 Deadra Drive, Lebanon, Missouri, United States of America, 65536",
    "latitude": 37.6815634,
    "longitude": -92.6556988,
    "recentMemberCount": 1
  },
  {
    "name": "LILY WEIGHTLIFTING",
    "address": "3660 Plaza Dr. Suite 1a, Ann Arbor, Michigan, United States of America, 48108",
    "latitude": 42.2372668,
    "longitude": -83.721016,
    "recentMemberCount": 5
  },
  {
    "name": "LINDENWOOD LIONS",
    "address": "209 South Kings Hwy, St. Charles, Missouri, United States of America, 63301",
    "latitude": 38.8172758,
    "longitude": -90.4990417,
    "recentMemberCount": 1
  },
  {
    "name": "Mad Hammer Barbell",
    "address": "5801 W 115th St, Overland Park, Kansas, United States of America, 66211",
    "latitude": 38.9206441,
    "longitude": -94.6519367,
    "recentMemberCount": 0
  },
  {
    "name": "Marin Heavy Athletics",
    "address": "5420 Nave Drive, Suite E, Novato, California, United States of America, 94949",
    "latitude": 38.0670749,
    "longitude": -122.5320623,
    "recentMemberCount": 1
  },
  {
    "name": "Martin Brock",
    "address": "4612 Maverick, Amarillo, Texas, United States of America, 79109",
    "latitude": 35.1594607,
    "longitude": -101.87871,
    "recentMemberCount": 0
  },
  {
    "name": "Maxx Effort Training",
    "address": "1 highlander way, lake wales, Florida, United States of America, 33853",
    "latitude": 27.917734,
    "longitude": -81.578405,
    "recentMemberCount": 2
  },
  {
    "name": "Metamorphosis Barbell Club",
    "address": "113 Acorn Ln, Unit C, Colchester, Vermont, United States of America, 05446",
    "latitude": 44.5274169,
    "longitude": -73.1893298,
    "recentMemberCount": 0
  },
  {
    "name": "Milo Strength Weightlifting Club",
    "address": "2301 Jacksboro Pike Suite 5, LaFollette, Tennessee, United States of America, 37766",
    "latitude": 36.3793638,
    "longitude": -84.0882704,
    "recentMemberCount": 0
  },
  {
    "name": "MISSOURI VALLEY MASTERS",
    "address": "319 E. 4th Street, Onaga, Kansas, United States of America, 66521",
    "latitude": 39.490565,
    "longitude": -96.1663722,
    "recentMemberCount": 0
  },
  {
    "name": "MOB Barbell",
    "address": "3750 E 120th Ave, Thornton, Colorado, United States of America, 80233",
    "latitude": 39.9136876,
    "longitude": -104.9437858,
    "recentMemberCount": 0
  },
  {
    "name": "MURDER OF CROWS",
    "address": "1010 Dean Street, Brooklyn, New York, United States of America, 11225",
    "latitude": 40.6777241,
    "longitude": -73.9568293,
    "recentMemberCount": 1
  },
  {
    "name": "Nevada Barbell",
    "address": "1400 6th Street, Nevada, Iowa, United States of America, 50201",
    "latitude": 42.024862,
    "longitude": -93.452408,
    "recentMemberCount": 0
  },
  {
    "name": "Stellar Strength Barbell",
    "address": "13047 Pond Springs Rd., Austin, Texas, United States of America, 78729",
    "latitude": 30.442685,
    "longitude": -97.774313,
    "recentMemberCount": 0
  },
  {
    "name": "TITAN BARBELL CLUB",
    "address": "10821 Williamson Ln, Unit 4, Cockeysville, Maryland, United States of America, 21030",
    "latitude": 39.4794119,
    "longitude": -76.6408977,
    "recentMemberCount": 1
  },
  {
    "name": "Valhalla Weightlifting",
    "address": "4919 Broadway, Unit 50, Boulder, Colorado, United States of America, 80301",
    "latitude": 40.0477499,
    "longitude": -105.2171236,
    "recentMemberCount": 1
  },
  {
    "name": "All In Barbell",
    "address": "110 Cumberland Park Drive #201, St. Augustine, Florida, United States of America, 32092",
    "latitude": 29.9643214,
    "longitude": -81.5071905,
    "recentMemberCount": 0
  },
  {
    "name": "LVL UP WEIGHTLIFTING",
    "address": "800 N Hill Ave, Deland, Florida, United States of America, 32724",
    "latitude": 29.0409339,
    "longitude": -81.2834548,
    "recentMemberCount": 0
  },
  {
    "name": "DAYWON Barbell",
    "address": "275 Pfeil Rd, CIBOLO, Texas, United States of America, 78108",
    "latitude": 29.5608889,
    "longitude": -98.2322378,
    "recentMemberCount": 0
  },
  {
    "name": "N. Highland WLC",
    "address": "1819 N. Highland Drive, Carroll, Iowa, United States of America, 51401",
    "latitude": 42.0570529,
    "longitude": -94.8541524,
    "recentMemberCount": 0
  },
  {
    "name": "North Port Weightlifting",
    "address": "2757 Sycamore Street, North Port, Florida, United States of America, 34289",
    "latitude": 27.0846654,
    "longitude": -82.1541645,
    "recentMemberCount": 3
  },
  {
    "name": "NORTHFIELD WLC",
    "address": "1400 Division St. S., Northfield, Minnesota, United States of America, 55057",
    "latitude": 44.4447573,
    "longitude": -93.1640585,
    "recentMemberCount": 1
  },
  {
    "name": "NWA Weightlifting",
    "address": "203 E Natural Way, Farmington, Arkansas, United States of America, 72703",
    "latitude": 36.1007963,
    "longitude": -94.1303959,
    "recentMemberCount": 0
  },
  {
    "name": "Old is Gold Barbell Club",
    "address": "36 Ryan Rd, Manalapan, New Jersey, United States of America, 07726",
    "latitude": 40.2950559,
    "longitude": -74.2907829,
    "recentMemberCount": 0
  },
  {
    "name": "ONG WEIGHTLIFTING",
    "address": "706 Arrawanna St, Colorado Springs, Colorado, United States of America, 80908",
    "latitude": 38.8425207,
    "longitude": -104.772011,
    "recentMemberCount": 0
  },
  {
    "name": "Pacific Weightlifting",
    "address": "4751 oceanside blvd unit D, oceanside, California, United States of America, 92056",
    "latitude": 33.196702,
    "longitude": -117.2842348,
    "recentMemberCount": 2
  },
  {
    "name": "PARAMOUNT BARBELL CLUB",
    "address": "22402 44th Ave W, Suite A, Mountlake Terrace, Washington, United States of America, 98043",
    "latitude": 47.7929572,
    "longitude": -122.3056231,
    "recentMemberCount": 3
  },
  {
    "name": "PFP Barbell Club",
    "address": "5500 Butler Street, Pittsburgh, Pennsylvania, United States of America, 15201",
    "latitude": 40.483571,
    "longitude": -79.949737,
    "recentMemberCount": 4
  },
  {
    "name": "Pilchuck Barbell",
    "address": "6205 192nd ST NE, Arlington, Washington, United States of America, 98223",
    "latitude": 48.1703853,
    "longitude": -122.1470963,
    "recentMemberCount": 1
  },
  {
    "name": "Pine Fortress Barbell",
    "address": "214 Loma Alta, Smithville, Texas, United States of America, 78957",
    "latitude": 30.0091322,
    "longitude": -97.1623713,
    "recentMemberCount": 0
  },
  {
    "name": "PIONEER WLC",
    "address": "2030 E. College Way, Olathe, Kansas, United States of America, 66062",
    "latitude": 38.8743408,
    "longitude": -94.7845598,
    "recentMemberCount": 3
  },
  {
    "name": "PR Barbell Performance",
    "address": "9133 Andrew Dr, Manassas Park, Virginia, United States of America, 20111",
    "latitude": 38.7593692,
    "longitude": -77.4357685,
    "recentMemberCount": 0
  },
  {
    "name": "PRECISION BARBELL",
    "address": "28710 Canwood St Ste 105-107, Agoura Hills, California, United States of America, 91301",
    "latitude": 34.1449499,
    "longitude": -118.758378,
    "recentMemberCount": 5
  },
  {
    "name": "PREMIER STRENGTH WLC",
    "address": "1091 INVESTOR PL, SAN JACINTO, California, United States of America, 92582",
    "latitude": 33.7824946,
    "longitude": -116.9804067,
    "recentMemberCount": 0
  },
  {
    "name": "Tsunami Weightlifting",
    "address": "62 Plum Point Rd, Saunderstown, Rhode Island, United States of America, 02874",
    "latitude": 41.5086837,
    "longitude": -71.4279139,
    "recentMemberCount": 0
  },
  {
    "name": "Twin City Barbell",
    "address": "667 COUNTY ROAD C W, Roseville, Minnesota, United States of America, 55113",
    "latitude": 45.0078658,
    "longitude": -93.1624475,
    "recentMemberCount": 1
  },
  {
    "name": "VERO BEACH WEIGHTLIFTING",
    "address": "190 Old Dixie Hwy, Unit 103, Vero Beach, Florida, United States of America, 32960",
    "latitude": 27.6358594,
    "longitude": -80.4123342,
    "recentMemberCount": 2
  },
  {
    "name": "BOISE BARBELL",
    "address": "7646 Lemhi St. #9, Boise, Idaho, United States of America, 83709",
    "latitude": 43.5839555,
    "longitude": -116.277507,
    "recentMemberCount": 0
  },
  {
    "name": "Lenka's Lifting Club",
    "address": "6585 E. 250th St., Elko New Market, Minnesota, United States of America, 55020",
    "latitude": 44.5735555,
    "longitude": -93.3446461,
    "recentMemberCount": 0
  },
  {
    "name": "ARK Weightlifting",
    "address": "1500 Lukas Ln,, oviedo, Florida, United States of America, 32765",
    "latitude": 28.6536604,
    "longitude": -81.2325552,
    "recentMemberCount": 0
  },
  {
    "name": "Barbell Seppuku",
    "address": "Harrisburg, Pennsylvania, United States of America, 17110",
    "latitude": 40.2663107,
    "longitude": -76.8861122,
    "recentMemberCount": 0
  },
  {
    "name": "Enchanted Strength Weightlifting",
    "address": "2400 Menaul Blvd NE, Albuquerque, New Mexico, United States of America, 87109",
    "latitude": 35.109127,
    "longitude": -106.616752,
    "recentMemberCount": 0
  },
  {
    "name": "Fork Weightlifting",
    "address": "18708 Telegraph, Romulus, Michigan, United States of America, 48174",
    "latitude": 42.2138325,
    "longitude": -83.327011,
    "recentMemberCount": 0
  },
  {
    "name": "Industrial Strength WLC",
    "address": "2553 NW Upshur Street, Portland, Oregon, United States of America, 97210",
    "latitude": 45.5362011,
    "longitude": -122.7040111,
    "recentMemberCount": 0
  },
  {
    "name": "Lighthouse Lifting",
    "address": "Ste B4, Mukilteo, Washington, United States of America, 98275",
    "latitude": 47.9474034,
    "longitude": -122.3036992,
    "recentMemberCount": 0
  },
  {
    "name": "Method Weightlifting",
    "address": "11 John St, Ste C, North Aurora, Illinois, United States of America, 60542",
    "latitude": 41.8130594,
    "longitude": -88.3254244,
    "recentMemberCount": 2
  },
  {
    "name": "Muncie Weightlifting Club",
    "address": "210 E Centennial Ave, Muncie, Indiana, United States of America, 47303",
    "latitude": 40.208829,
    "longitude": -85.3848887,
    "recentMemberCount": 1
  },
  {
    "name": "RED WING WEIGHTLIFTING CLUB",
    "address": "528 15th Street, Red Wing, Minnesota, United States of America, 55066",
    "latitude": 44.5557901,
    "longitude": -92.5226826,
    "recentMemberCount": 0
  },
  {
    "name": "Rep Max Performance",
    "address": "410 W Grove Ave, Orange, California, United States of America, 92865",
    "latitude": 33.8208898,
    "longitude": -117.858153,
    "recentMemberCount": 1
  },
  {
    "name": "Resident Barbell Club",
    "address": "523 Glass Lane #A-4, Modesto, California, United States of America, 95356",
    "latitude": 37.7197934,
    "longitude": -121.0175536,
    "recentMemberCount": 1
  },
  {
    "name": "Rise Up Weightlifting",
    "address": "100 Business Center Dr. Suite 5, ormond beach, Florida, United States of America, 32174",
    "latitude": 29.29216,
    "longitude": -81.1035099,
    "recentMemberCount": 0
  },
  {
    "name": "Ritual Weightlifting",
    "address": "3160 Casteel Rd, Marietta, Georgia, United States of America, 30062",
    "latitude": 33.9982421,
    "longitude": -84.4689517,
    "recentMemberCount": 0
  },
  {
    "name": "SANDUSKY WEIGHTLIFTING",
    "address": "1215 Filmore St., Sandusky, Ohio, United States of America, 44870",
    "latitude": 41.4391196,
    "longitude": -82.717472,
    "recentMemberCount": 1
  },
  {
    "name": "Springfield Strength and Conditioning Weightlifting",
    "address": "2026 W Vista St, Springfield, Missouri, United States of America, 65807",
    "latitude": 37.1660564,
    "longitude": -93.3203972,
    "recentMemberCount": 0
  },
  {
    "name": "The StrongBad Lifting Co.",
    "address": "540 S Highway 27 Unit A, Minneola, Florida, United States of America, 34715",
    "latitude": 28.6127638,
    "longitude": -81.7365641,
    "recentMemberCount": 2
  },
  {
    "name": "UC-Santa Barbara",
    "address": "Robertson Gymnasium, Room 1420, Santa Barbara, California, United States of America, 93106",
    "latitude": 34.4161513,
    "longitude": -119.8493548,
    "recentMemberCount": 1
  },
  {
    "name": "Uptown Strength",
    "address": "754 St Nicholas Ave, #B, New York, New York, United States of America, 10031",
    "latitude": 40.8258128,
    "longitude": -73.943228,
    "recentMemberCount": 0
  },
  {
    "name": "Weightlifting.Org",
    "address": "53 Albertson Ave., Albertson, New York, United States of America, 11507",
    "latitude": 40.7688609,
    "longitude": -73.6414664,
    "recentMemberCount": 0
  },
  {
    "name": "Arc Weightlifting Club",
    "address": "1125 Christian James Dr, Clarksville, Tennessee, United States of America, 37043",
    "latitude": 36.517604,
    "longitude": -87.2652383,
    "recentMemberCount": 0
  },
  {
    "name": "Stonington Barbell Club",
    "address": "2a Extrusion Dr, Pawcatuck, Connecticut, United States of America, 06379",
    "latitude": 41.3649285,
    "longitude": -71.8632853,
    "recentMemberCount": 0
  },
  {
    "name": "Wood Weightlifting",
    "address": "1703 N 24th St, Tampa, Florida, United States of America, 33605",
    "latitude": 27.9596908,
    "longitude": -82.4321739,
    "recentMemberCount": 0
  },
  {
    "name": "XIOS Strength & Conditioning",
    "address": "7387 Monterey Street, Gilroy, California, United States of America, 95020",
    "latitude": 37.0110912,
    "longitude": -121.5706373,
    "recentMemberCount": 1
  },
  {
    "name": "Heartland Strength",
    "address": "8944 H St., Omaha, Nebraska, United States of America, 68127",
    "latitude": 41.2175046,
    "longitude": -96.0506076,
    "recentMemberCount": 3
  },
  {
    "name": "HI PERFORMANCE ATHLETICS",
    "address": "47 La'a St, Kahului, Hawaii, United States of America, 96732",
    "latitude": 20.9221618,
    "longitude": -156.5886795,
    "recentMemberCount": 2
  },
  {
    "name": "Iron Legacy Weightlifting",
    "address": "4100 El Camino Real, ATASCADERO, California, United States of America, 93422",
    "latitude": 35.4985057,
    "longitude": -120.683959,
    "recentMemberCount": 0
  },
  {
    "name": "No Te Rajes Barbell",
    "address": "14627 Bulverde Rd, San Antonio, Texas, United States of America, 78247",
    "latitude": 29.5742159,
    "longitude": -98.4182802,
    "recentMemberCount": 0
  },
  {
    "name": "The Bar Weightlifting Club",
    "address": "558 Plate Dr Suite 11, East Dundee, Illinois, United States of America, 60118",
    "latitude": 42.0983165,
    "longitude": -88.2960327,
    "recentMemberCount": 1
  },
  {
    "name": "The Strength Shack",
    "address": "26 Applewood drive, Easton, Pennsylvania, United States of America, 18045",
    "latitude": 40.6880168,
    "longitude": -75.2718454,
    "recentMemberCount": 0
  },
  {
    "name": "V23 WEIGHTLIFTING",
    "address": "80 Inverness Dr E., Englewood, Colorado, United States of America, 80112",
    "latitude": 39.5792693,
    "longitude": -104.8892455,
    "recentMemberCount": 1
  },
  {
    "name": "Volusia Barbell",
    "address": "801 Taylor Rd, Port Orange, Florida, United States of America, 32129",
    "latitude": 29.1099461,
    "longitude": -81.0163563,
    "recentMemberCount": 0
  },
  {
    "name": "Atlas Weightlifting Club",
    "address": "319 Lumpkin Street, Monroe, Georgia, United States of America, 30655",
    "latitude": 33.792444,
    "longitude": -83.7118669,
    "recentMemberCount": 1
  },
  {
    "name": "Barbell Control",
    "address": "202 S Myrtle Ave, Monrovia, California, United States of America, 91016",
    "latitude": 34.1501311,
    "longitude": -118.0009736,
    "recentMemberCount": 1
  },
  {
    "name": "Brooklyn Barbell Club",
    "address": "98 Bayard St, Brooklyn, New York, United States of America, 11222",
    "latitude": 40.719102,
    "longitude": -73.948357,
    "recentMemberCount": 0
  },
  {
    "name": "Carson City Barbell Club",
    "address": "403 Hot Springs Rd. Suite 2, O, Carson City, Nevada, United States of America, 89706",
    "latitude": 39.1753348,
    "longitude": -119.766151,
    "recentMemberCount": 0
  },
  {
    "name": "Primo Barbell Club",
    "address": "905 Derby St., Pekin, Illinois, United States of America, 61554",
    "latitude": 40.5565611,
    "longitude": -89.6582495,
    "recentMemberCount": 0
  },
  {
    "name": "West Michigan Muscle",
    "address": "2502 Saidla, Kalamazoo, Michigan, United States of America, 49001",
    "latitude": 42.2660244,
    "longitude": -85.5342993,
    "recentMemberCount": 0
  },
  {
    "name": "Bexar Barbell",
    "address": "12066 Starcrest Suite #310, San Antonio, Texas, United States of America, 78247",
    "latitude": 29.5834532,
    "longitude": -98.4090155,
    "recentMemberCount": 17
  },
  {
    "name": "BGB barbell club",
    "address": "170 Robinson Drive, Fayetteville, Georgia, United States of America, 30214",
    "latitude": 33.4555841,
    "longitude": -84.4303722,
    "recentMemberCount": 0
  },
  {
    "name": "Buffalo Head Barbell Club",
    "address": "22 New Haven rd, Vergennes, Vermont, United States of America, 05491",
    "latitude": 44.1649224,
    "longitude": -73.2458918,
    "recentMemberCount": 0
  },
  {
    "name": "Chippewa Falls Weightlifting",
    "address": "16 Taylor Street, Chippewa Falls, Wisconsin, United States of America, 54729",
    "latitude": 44.9322735,
    "longitude": -91.3956291,
    "recentMemberCount": 0
  },
  {
    "name": "Coven Club",
    "address": "8920 Sunset Ave, Fair Oaks, California, United States of America, 95628",
    "latitude": 38.6529223,
    "longitude": -121.2578469,
    "recentMemberCount": 0
  },
  {
    "name": "ECLIPSE BARBELL CLUB",
    "address": "9233 S Mingo RD., Suite C2, Tulsa, Oklahoma, United States of America, 74133",
    "latitude": 36.0337863,
    "longitude": -95.8771667,
    "recentMemberCount": 1
  },
  {
    "name": "IRON ATHLETE WEIGHTLIFTING CLUB",
    "address": "8 N Roosevelt Ave, Chandler, Arizona, United States of America, 85226",
    "latitude": 33.3036351,
    "longitude": -111.9511402,
    "recentMemberCount": 0
  },
  {
    "name": "Mako Athletics",
    "address": "1500 N Palafox St, Pensacola, Florida, United States of America, 32501",
    "latitude": 30.42808,
    "longitude": -87.21879,
    "recentMemberCount": 2
  },
  {
    "name": "Manhattan Barbell",
    "address": "50 West 28th St. - 2nd Floor, New York, New York, United States of America, 10001",
    "latitude": 40.7484337,
    "longitude": -73.9940233,
    "recentMemberCount": 2
  },
  {
    "name": "MC2 Weightlifting Club",
    "address": "23419 Mountain Song Loop, Murrieta, California, United States of America, 92562",
    "latitude": 33.5762197,
    "longitude": -117.2378971,
    "recentMemberCount": 0
  },
  {
    "name": "Oly Concepts",
    "address": "362 West Melody Lane, Casselberry, Florida, United States of America, 32707",
    "latitude": 28.6722123,
    "longitude": -81.344048,
    "recentMemberCount": 7
  },
  {
    "name": "RCF Weightlifting Club",
    "address": "2533 Jefferson Ave., Tacoma, Washington, United States of America, 98402",
    "latitude": 47.2379743,
    "longitude": -122.4387463,
    "recentMemberCount": 0
  },
  {
    "name": "Team Divergent",
    "address": "2162 24th Ave., San Francisco, California, United States of America, 94116",
    "latitude": 37.7463573,
    "longitude": -122.4802386,
    "recentMemberCount": 0
  },
  {
    "name": "TEAM FLORIDA - AFP",
    "address": "5802 Bee Ridge Rd STE 102, Sarasota, Florida, United States of America, 34233",
    "latitude": 27.2762608,
    "longitude": -82.4702398,
    "recentMemberCount": 0
  },
  {
    "name": "TEAM SOUL MIAMI",
    "address": "7360 SW 24th St APT 31, Miami, Florida, United States of America, 33155",
    "latitude": 25.739391,
    "longitude": -80.3091135,
    "recentMemberCount": 3
  },
  {
    "name": "Tri State Barbell",
    "address": "31 Industrial Ave, Suite 3, Mahwah, New Jersey, United States of America, 07430",
    "latitude": 41.071505,
    "longitude": -74.1627108,
    "recentMemberCount": 7
  },
  {
    "name": "York County Barbell",
    "address": "4 Fiddlehead Ln, Berwick, Maine, United States of America, 03901",
    "latitude": 43.3061356,
    "longitude": -70.8070574,
    "recentMemberCount": 1
  },
  {
    "name": "AZO BARBELL CLUB",
    "address": "1176 Gernaat Ct. - Ste. B, Portage, Michigan, United States of America, 49002",
    "latitude": 42.2200573,
    "longitude": -85.5709325,
    "recentMemberCount": 0
  },
  {
    "name": "Bastrop Barbell",
    "address": "303 Martin Luther King Avenue, Bastrop, Texas, United States of America, 78602",
    "latitude": 30.1119699,
    "longitude": -97.3251266,
    "recentMemberCount": 0
  },
  {
    "name": "San Francisco Weightlifting Club",
    "address": "566 Monterey Boulevard, San Francisco, California, United States of America, 94127",
    "latitude": 37.7314275,
    "longitude": -122.4480593,
    "recentMemberCount": 1
  },
  {
    "name": "Anna Banana Barbell Club",
    "address": "16 Suydam Place, Babylon, New York, United States of America, 11702",
    "latitude": 40.6964169,
    "longitude": -73.3202058,
    "recentMemberCount": 0
  },
  {
    "name": "Ballard Barbell Club",
    "address": "11100 Chateau Hill, Austin, Texas, United States of America, 78750",
    "latitude": 30.434155,
    "longitude": -97.79921,
    "recentMemberCount": 1
  },
  {
    "name": "Bars And Roses",
    "address": "10810 Merrick Run, San Antonio, Texas, United States of America, 78254",
    "latitude": 29.528296,
    "longitude": -98.6933168,
    "recentMemberCount": 0
  },
  {
    "name": "Black Label Barbell Club",
    "address": "9953 FM 521, Rosharon, Texas, United States of America, 77583",
    "latitude": 29.4706684,
    "longitude": -95.4596167,
    "recentMemberCount": 0
  },
  {
    "name": "Bowen Elite Weightlifting",
    "address": "2887 US-78 unit 304, Loganville, Georgia, United States of America, 30052",
    "latitude": 33.8093095,
    "longitude": -83.9056356,
    "recentMemberCount": 3
  },
  {
    "name": "Cache Weightlifting Club",
    "address": "102 West H Ave, Cache, Oklahoma, United States of America, 73527",
    "latitude": 34.6284269,
    "longitude": -98.625101,
    "recentMemberCount": 0
  },
  {
    "name": "Cherokee Barbell",
    "address": "12910 Highway 92 Suite #101, Woodstock, Georgia, United States of America, 30188",
    "latitude": 34.1127279,
    "longitude": -84.467814,
    "recentMemberCount": 3
  },
  {
    "name": "Columbus Weightlifting",
    "address": "12525 Fancher Road, Westerville, Ohio, United States of America, 43082",
    "latitude": 40.1533071,
    "longitude": -82.9124426,
    "recentMemberCount": 4
  },
  {
    "name": "Crow River CrossFit Weightlifting",
    "address": "600 East Babcock Blvd, Delano, Minnesota, United States of America, 55328",
    "latitude": 45.0356665,
    "longitude": -93.7806449,
    "recentMemberCount": 0
  },
  {
    "name": "Denver Barbell Club",
    "address": "3821 N Steele Street, Suite 1302, Denver, Colorado, United States of America, 80205",
    "latitude": 39.7579853,
    "longitude": -104.9663979,
    "recentMemberCount": 2
  },
  {
    "name": "Down South Barbell",
    "address": "6405 Camden rd., suite 103, Fayetteville, North Carolina, United States of America, 28306",
    "latitude": 34.9879269,
    "longitude": -78.9444094,
    "recentMemberCount": 0
  },
  {
    "name": "Eagan High School",
    "address": "4185 Braddock Trail, Eagan, Minnesota, United States of America, 55123",
    "latitude": 44.8078734,
    "longitude": -93.1332691,
    "recentMemberCount": 0
  },
  {
    "name": "EAST COAST GOLD W/L TEAM",
    "address": "5741 Bayside Rd, Suite 101, Virginia Beach, Virginia, United States of America, 23455",
    "latitude": 36.6878242,
    "longitude": -76.229921,
    "recentMemberCount": 11
  },
  {
    "name": "Fog City BBC",
    "address": "1643 Valencia St, SAN FRANCISCO, California, United States of America, 94110",
    "latitude": 37.7470476,
    "longitude": -122.4200711,
    "recentMemberCount": 0
  },
  {
    "name": "GNU WEIGHTWORKS",
    "address": "1525 Half St SW, Washington, District of Columbia, United States of America, 20024",
    "latitude": 38.8712129,
    "longitude": -77.0110682,
    "recentMemberCount": 0
  },
  {
    "name": "Hellbender Barbell",
    "address": "5500 Roan Creek Road, Mountain City, Tennessee, United States of America, 37691",
    "latitude": 36.3935,
    "longitude": -81.863621,
    "recentMemberCount": 0
  },
  {
    "name": "Lion Chaser Barbell",
    "address": "20365 S Gardner Rd, Gardner, Kansas, United States of America, 66030",
    "latitude": 38.8335165,
    "longitude": -94.9276283,
    "recentMemberCount": 2
  },
  {
    "name": "On Track Barbell",
    "address": "15140 S Keeler Street, Suite A, Olathe, Kansas, United States of America, 66062",
    "latitude": 38.8698272,
    "longitude": -94.7769811,
    "recentMemberCount": 0
  },
  {
    "name": "Rising Tide Weightlifting",
    "address": "6427 Windmill Way Unit D, Wilmington, North Carolina, United States of America, 28405",
    "latitude": 34.2593146,
    "longitude": -77.8614834,
    "recentMemberCount": 3
  },
  {
    "name": "WILLIAMS WEIGHTLIFTING",
    "address": "5007 B U Bowman Drive, Buford, Georgia, United States of America, 30518",
    "latitude": 34.1469345,
    "longitude": -83.9545886,
    "recentMemberCount": 0
  },
  {
    "name": "A1 Barbell Club",
    "address": "4345 Hwy 33, West Bend, Wisconsin, United States of America, 53095",
    "latitude": 43.4032595,
    "longitude": -88.1907961,
    "recentMemberCount": 0
  },
  {
    "name": "Adapted Strength",
    "address": "186 Bella Vista Road, STE D, Vacaville, California, United States of America, 95687",
    "latitude": 38.3491556,
    "longitude": -121.9642399,
    "recentMemberCount": 0
  },
  {
    "name": "AUSTIN WEIGHTLIFTING CLUB",
    "address": "8708 South Congress, Building C, Austin, Texas, United States of America, 78745",
    "latitude": 30.2091254,
    "longitude": -97.7920726,
    "recentMemberCount": 2
  },
  {
    "name": "Everyday Athletes Barbell",
    "address": "2001 Production Drive, Unit 6, Louisville, Kentucky, United States of America, 40299",
    "latitude": 38.1889778,
    "longitude": -85.5592441,
    "recentMemberCount": 0
  },
  {
    "name": "HUMBLE BEAST WEIGHTLIFTING",
    "address": "16111 sycamore ln, rockville, Maryland, United States of America, 20852",
    "latitude": 39.051154,
    "longitude": -77.1199837,
    "recentMemberCount": 0
  },
  {
    "name": "Independent City Barbell",
    "address": "1984 Northgate Commerce Pkwy, Suffolk, Virginia, United States of America, 23435",
    "latitude": 36.8170953,
    "longitude": -76.4752212,
    "recentMemberCount": 0
  },
  {
    "name": "K&M WEIGHTLIFTING",
    "address": "22 Commerce Blvd, Suite 1, Plainville, Massachusetts, United States of America, 02762",
    "latitude": 42.0185637,
    "longitude": -71.322841,
    "recentMemberCount": 0
  },
  {
    "name": "Keep Pulling",
    "address": "9340 N Florida Avenue, Suite 3, Tampa, Florida, United States of America, 33612",
    "latitude": 28.0500772,
    "longitude": -82.4526179,
    "recentMemberCount": 5
  },
  {
    "name": "Khmer Strength Movement",
    "address": "15902 Yukon Lane, Rockville, Maryland, United States of America, 20855",
    "latitude": 39.1324047,
    "longitude": -77.1448115,
    "recentMemberCount": 0
  },
  {
    "name": "LAS VEGAS BARBELL",
    "address": "3009 E Post Rd, Suite B, Las Vegas, Nevada, United States of America, 89120",
    "latitude": 36.0776212,
    "longitude": -115.1018466,
    "recentMemberCount": 3
  },
  {
    "name": "Lowcountry Barbell",
    "address": "888 College Park Rd, Building 700, Summerville, South Carolina, United States of America, 29486-8682",
    "latitude": 33.0732226,
    "longitude": -80.1252441,
    "recentMemberCount": 1
  },
  {
    "name": "Mach 1 Barbell",
    "address": "3435 route 9 north, Unit 6b, freehold, New Jersey, United States of America, 07728",
    "latitude": 40.2426471,
    "longitude": -74.2782269,
    "recentMemberCount": 1
  },
  {
    "name": "Marble Weightlifting",
    "address": "54 W Main Street (Rear Building), Freehold, New Jersey, United States of America, 07728",
    "latitude": 40.2426471,
    "longitude": -74.2782269,
    "recentMemberCount": 2
  },
  {
    "name": "Millennium Weightlifting",
    "address": "12408 SW 144 Ter, Miami, Florida, United States of America, 33186",
    "latitude": 25.659255,
    "longitude": -80.4077096,
    "recentMemberCount": 0
  },
  {
    "name": "Murdock Barbell Club",
    "address": "17345 Abbott Ave, Suite 101, Port Charlotte, Florida, United States of America, 33954",
    "latitude": 27.0221074,
    "longitude": -82.1094956,
    "recentMemberCount": 0
  },
  {
    "name": "Plano Weightlifting",
    "address": "7100 Preston Rd, Plano, Texas, United States of America, 75024",
    "latitude": 33.07329,
    "longitude": -96.7929699,
    "recentMemberCount": 0
  },
  {
    "name": "PRIMORDIAL STRENGTH",
    "address": "717 Jamison Rd., Elma, New York, United States of America, 14059",
    "latitude": 42.8054815,
    "longitude": -78.6353989,
    "recentMemberCount": 0
  },
  {
    "name": "Rose Gold Athletics",
    "address": "6550 Little River Turnpike, Alexandria, Virginia, United States of America, 22313",
    "latitude": 38.8169043,
    "longitude": -77.1401176,
    "recentMemberCount": 2
  },
  {
    "name": "SONA Weightlifting",
    "address": "111 Brown Street, Johnson City, New York, United States of America, 13790",
    "latitude": 42.1186432,
    "longitude": -75.9618582,
    "recentMemberCount": 1
  },
  {
    "name": "Timberhead Barbell Club",
    "address": "\r\n1257 John Fitch Blvd, Unit 1A-1B, South Windsor, Connecticut, United States of America, 06074",
    "latitude": 41.3713257,
    "longitude": -71.9701177,
    "recentMemberCount": 0
  },
  {
    "name": "Aspire Athletic Performance",
    "address": "1 Park Drive, Unit 11, Westford, Massachusetts, United States of America, 01886",
    "latitude": 42.5765642,
    "longitude": -71.4398998,
    "recentMemberCount": 2
  },
  {
    "name": "Vespid Strength",
    "address": "12 Williams Ct, Somerville, Massachusetts, United States of America, 02143",
    "latitude": 42.3875006,
    "longitude": -71.113529,
    "recentMemberCount": 0
  },
  {
    "name": "Force Praxeum",
    "address": "101 Trailridge Dr, Cedar Park, Texas, United States of America, 78613",
    "latitude": 30.513959,
    "longitude": -97.803711,
    "recentMemberCount": 0
  },
  {
    "name": "Garys Gym",
    "address": "110 Hodgenville Rd, Elizabethtown, Kentucky, United States of America, 42701",
    "latitude": 37.672264,
    "longitude": -85.8433712,
    "recentMemberCount": 0
  },
  {
    "name": "Grey Castle Strength and Conditioning",
    "address": "1405 Park Blvd, San Diego, California, United States of America, 92101",
    "latitude": 32.7214126,
    "longitude": -117.1512354,
    "recentMemberCount": 0
  },
  {
    "name": "Heavenly Gains Barbell",
    "address": "5012 Serry Lane, Milton, Florida, United States of America, 32571",
    "latitude": 30.6343286,
    "longitude": -87.151733,
    "recentMemberCount": 0
  },
  {
    "name": "Higher Ground Barbell Club",
    "address": "280 Missouri Ave, Unit B, Clarksville, Indiana, United States of America, 47130",
    "latitude": 38.3270047,
    "longitude": -85.7007894,
    "recentMemberCount": 0
  },
  {
    "name": "Mi5 Barbell Club",
    "address": "17630 Juniper Path, SUITE F, Lakeville, Minnesota, United States of America, 55044",
    "latitude": 44.6802791,
    "longitude": -93.2508774,
    "recentMemberCount": 3
  },
  {
    "name": "Norman Strength Barbell",
    "address": "2719 Bart Conner Ct, STE 107, Norman, Oklahoma, United States of America, 73072",
    "latitude": 35.222446,
    "longitude": -97.4817194,
    "recentMemberCount": 0
  },
  {
    "name": "Palm Beach Weightlifting",
    "address": "1335 unit 23 old Dixie hwy, Lake Park, Florida, United States of America, 33403",
    "latitude": 26.8004944,
    "longitude": -80.0782882,
    "recentMemberCount": 2
  },
  {
    "name": "Protopig Strength",
    "address": "35215 Aspen Ln SE, Unit 1303, Snoqualmie, Washington, United States of America, 98065",
    "latitude": 47.5296101,
    "longitude": -121.8624803,
    "recentMemberCount": 0
  },
  {
    "name": "Stallion Weightlifting Club",
    "address": "11629 Broad River Rd, Chapin, South Carolina, United States of America, 29063",
    "latitude": 34.1139512,
    "longitude": -81.1907192,
    "recentMemberCount": 0
  },
  {
    "name": "STONECUTTER WEIGHTLIFTING",
    "address": "23235 Tomball Pkwy, Ste 2B, Tomball, Texas, United States of America, 77377",
    "latitude": 30.0308747,
    "longitude": -95.6292269,
    "recentMemberCount": 0
  },
  {
    "name": "Strength Solutions Weightlifting",
    "address": "1965 Recreation Lane, Avon, Ohio, United States of America, 44011",
    "latitude": 41.4621236,
    "longitude": -82.0632906,
    "recentMemberCount": 3
  },
  {
    "name": "THE METAL CHAPTER PERFORMANCE & STRENGTH",
    "address": "4521 Brittmoore Rd, Building 4545, Houston, Texas, United States of America, 77041",
    "latitude": 29.8498603,
    "longitude": -95.5916475,
    "recentMemberCount": 0
  },
  {
    "name": "The Resilient Strength",
    "address": "2744 E 11th St, Unit B4/B5, OAKLAND, California, United States of America, 94601",
    "latitude": 37.7752312,
    "longitude": -122.2224806,
    "recentMemberCount": 0
  },
  {
    "name": "The Shed Barbell",
    "address": "2170 colins rd, #1903, denton, Texas, United States of America, 76208",
    "latitude": 33.1901942,
    "longitude": -97.070392,
    "recentMemberCount": 0
  },
  {
    "name": "Warwick Weightlifting Club",
    "address": "28 Church Street, Suite 3, Warwick, New York, United States of America, 10990",
    "latitude": 41.2645096,
    "longitude": -74.3627069,
    "recentMemberCount": 0
  },
  {
    "name": "WEBER STATE WEIGHTLIFTING",
    "address": "Weber State University 2802 University Circle, Ogden, Utah, United States of America, 84408",
    "latitude": 41.192496,
    "longitude": -111.943336,
    "recentMemberCount": 0
  },
  {
    "name": "2 Wolves Barbell",
    "address": "4365 Thornview Dr, Morrow, Ohio, United States of America, 45152",
    "latitude": 39.3488179,
    "longitude": -84.1502352,
    "recentMemberCount": 0
  },
  {
    "name": "ATHLETIC LAB WLC",
    "address": "110 COMPETITION CENTER DR, Suite 150, MORRISVILLE, North Carolina, United States of America, 27560",
    "latitude": 35.8427471,
    "longitude": -78.8192034,
    "recentMemberCount": 4
  },
  {
    "name": "Slate Strength and Conditioning",
    "address": "2701 NE 127th St, Seattle, Washington, United States of America, 98125",
    "latitude": 47.7209458,
    "longitude": -122.2986951,
    "recentMemberCount": 0
  },
  {
    "name": "Wormtown Weightlifting",
    "address": "5 Centech Blvd, Suite 1, Shrewsbury, Massachusetts, United States of America, 01545",
    "latitude": 42.2884762,
    "longitude": -71.7270592,
    "recentMemberCount": 3
  },
  {
    "name": "ALLSOUTH Barbell",
    "address": "6075 Atlantic Blvd, Norcross, Georgia, United States of America, 30071",
    "latitude": 33.9412949,
    "longitude": -84.2329337,
    "recentMemberCount": 10
  },
  {
    "name": "ATLANTA PERFORMANCE",
    "address": "2080 Peachtree Industrial Ct SUITE 112, Chamblee, Georgia, United States of America, 30341",
    "latitude": 33.8914794,
    "longitude": -84.2910518,
    "recentMemberCount": 1
  },
  {
    "name": "Battle Born Barbell",
    "address": "1296 Industrial Court, Gardnerville, Nevada, United States of America, 89460",
    "latitude": 38.931013,
    "longitude": -119.7276255,
    "recentMemberCount": 1
  },
  {
    "name": "Beyond The Barbell",
    "address": "159 Trojan Way, Douglas, Georgia, United States of America, 31533",
    "latitude": 31.5526373,
    "longitude": -82.8613832,
    "recentMemberCount": 2
  },
  {
    "name": "BLACK & RED BARBELL CLUB",
    "address": "8504 Tyco Rd, Tysons Corner, Virginia, United States of America, 22182",
    "latitude": 38.9304719,
    "longitude": -77.2421755,
    "recentMemberCount": 0
  },
  {
    "name": "Brooklyn Training Hall",
    "address": "321 Scholes St., Brooklyn, New York, United States of America, 11206",
    "latitude": 40.709761,
    "longitude": -73.9354607,
    "recentMemberCount": 0
  },
  {
    "name": "Bull Strength Barbell",
    "address": "14401 South Georgia st, Amarillo, Texas, United States of America, 79118",
    "latitude": 35.1385663,
    "longitude": -101.8660889,
    "recentMemberCount": 1
  },
  {
    "name": "CALAVERA BARBELL",
    "address": "9475 Double R Blvd #15, Reno, Nevada, United States of America, 89521",
    "latitude": 39.4460255,
    "longitude": -119.7610376,
    "recentMemberCount": 1
  },
  {
    "name": "Cheshire Weightlifting Club",
    "address": "170 Patton Dr, Cheshire, Connecticut, United States of America, 06410",
    "latitude": 41.4931373,
    "longitude": -72.909698,
    "recentMemberCount": 1
  },
  {
    "name": "Granite Strength",
    "address": "1445 Jupiter Park Dr Ste 9, Jupiter, FL 33458, Jupiter, Florida, United States of America, 33470",
    "latitude": 26.7470894,
    "longitude": -80.3007854,
    "recentMemberCount": 0
  },
  {
    "name": "Lotus Barbell Club",
    "address": "906 Tommydon Street, Stockton, California, United States of America, 95210",
    "latitude": 38.0184652,
    "longitude": -121.3001506,
    "recentMemberCount": 0
  },
  {
    "name": "PROJECT LIFT",
    "address": "5040 Nike Dr Ste B, Hilliard, Ohio, United States of America, 43026",
    "latitude": 40.0169508,
    "longitude": -83.1522381,
    "recentMemberCount": 2
  },
  {
    "name": "Rockledge Barbell Club",
    "address": "402 Hawk St, Suite E, Rockledge, Florida, United States of America, 32955",
    "latitude": 28.3060214,
    "longitude": -80.726894,
    "recentMemberCount": 0
  },
  {
    "name": "Zion Barbell Club",
    "address": "1202 Massey Tompkins, Baytown, Texas, United States of America, 77521",
    "latitude": 29.763072,
    "longitude": -94.9515636,
    "recentMemberCount": 0
  },
  {
    "name": "Able Strength Weightlifting",
    "address": "111 Rio Rancho Drive Northeast, 105, Rio Rancho, New Mexico, United States of America, 87124",
    "latitude": 35.2472371,
    "longitude": -106.671437,
    "recentMemberCount": 0
  },
  {
    "name": "Argonauts SC",
    "address": "200 Great Barracuda Wy, St Johns, Florida, United States of America, 32259",
    "latitude": 30.0834343,
    "longitude": -81.4927836,
    "recentMemberCount": 0
  },
  {
    "name": "Salus Barbell Club",
    "address": "1680 Route 35, Salus Barbell Club, Middletown, New Jersey, United States of America, 07748",
    "latitude": 40.4033252,
    "longitude": -74.1136929,
    "recentMemberCount": 1
  },
  {
    "name": "Daidalos Weightlifting",
    "address": "2312 250th Street, Lomita, California, United States of America, 90717",
    "latitude": 33.798164,
    "longitude": -118.323061,
    "recentMemberCount": 0
  },
  {
    "name": "Delaware and Vermont Weightlifting",
    "address": "32779 East Riga Drive, OCEAN VIEW, Delaware, United States of America, 19970",
    "latitude": 38.5566738,
    "longitude": -75.1054161,
    "recentMemberCount": 0
  },
  {
    "name": "Dirty Durham Barbell",
    "address": "2500 Meridian Parkway, Suite 180, Durham, North Carolina, United States of America, 27713",
    "latitude": 35.9133233,
    "longitude": -78.9207912,
    "recentMemberCount": 1
  },
  {
    "name": "Endless Strength Weightlifting",
    "address": "4009 Lydney Circle, Waxhaw, North Carolina, United States of America, 28173",
    "latitude": 34.9275673,
    "longitude": -80.7688781,
    "recentMemberCount": 2
  },
  {
    "name": "Force Barbell Club",
    "address": "306 Huntley Road, Westford, Vermont, United States of America, 05494",
    "latitude": 44.6333675,
    "longitude": -73.0028485,
    "recentMemberCount": 0
  },
  {
    "name": "Four L Lift Club",
    "address": "30543 FL-54, Wesley Chapel, Florida, United States of America, 33543",
    "latitude": 28.1905542,
    "longitude": -82.3970559,
    "recentMemberCount": 0
  },
  {
    "name": "Full Send Oly",
    "address": "661 Jackson Way, Panama city, Florida, United States of America, 32405",
    "latitude": 30.207997,
    "longitude": -85.6731159,
    "recentMemberCount": 1
  },
  {
    "name": "Glass City Weightlifting",
    "address": "3063 W. Alexis Rd., Toledo, Ohio, United States of America, 43613",
    "latitude": 41.7208315,
    "longitude": -83.6191496,
    "recentMemberCount": 0
  },
  {
    "name": "Grizzly weightlifting",
    "address": "33 emery street, Portsmouth, New Hampshire, United States of America, 03801",
    "latitude": 43.0797894,
    "longitude": -70.7734911,
    "recentMemberCount": 0
  },
  {
    "name": "Haworth Weightlifting",
    "address": "20 Steeple Run Way, Savannah, Georgia, United States of America, 31405",
    "latitude": 32.0408903,
    "longitude": -81.1306162,
    "recentMemberCount": 2
  },
  {
    "name": "High Desert Athletic Club Tucson",
    "address": "6130 E Speedway Blvd, Tuscon, Arizona, United States of America, 85712",
    "latitude": 32.2482388,
    "longitude": -110.8905211,
    "recentMemberCount": 0
  },
  {
    "name": "Horsepower Strength Weightlifting Club",
    "address": "4440 Township Line, Schwenksville, Pennsylvania, United States of America, 19473",
    "latitude": 40.2532661,
    "longitude": -75.4710092,
    "recentMemberCount": 0
  },
  {
    "name": "Iron Forged Weightlifting",
    "address": "241 Cherry Street, Ithaca, New York, United States of America, 14850",
    "latitude": 42.4335846,
    "longitude": -76.5170298,
    "recentMemberCount": 0
  },
  {
    "name": "Jacksonville Weightlifting",
    "address": "13830 Gran Bay Pkwy, Unit 403/404, Jacksonville, Florida, United States of America, 32258",
    "latitude": 30.1388073,
    "longitude": -81.550539,
    "recentMemberCount": 4
  },
  {
    "name": "MILLER WEIGHTLIFTING",
    "address": "1583 Pacheco St, Santa Fe, New Mexico, United States of America, 87505",
    "latitude": 35.6644161,
    "longitude": -105.9592428,
    "recentMemberCount": 2
  },
  {
    "name": "One World Barbell Club",
    "address": "33415 Western Ave, Union City, California, United States of America, 94587",
    "latitude": 37.5956137,
    "longitude": -122.032774,
    "recentMemberCount": 0
  },
  {
    "name": "Polaris Weightlifting",
    "address": "21010 Vanowen Street, Canoga Park, California, United States of America, 91303",
    "latitude": 34.1937645,
    "longitude": -118.6061353,
    "recentMemberCount": 2
  },
  {
    "name": "Schuster Athletics",
    "address": "2199 E, Henrietta Rd, Rochester, NY, 14623, Rochester, New York, United States of America, 14623",
    "latitude": 43.086019,
    "longitude": -77.6285389,
    "recentMemberCount": 0
  },
  {
    "name": "Underground PDX",
    "address": "740 Se 182nd Ave, Building A, Portland, Oregon, United States of America, 97233-4960",
    "latitude": 45.5134733,
    "longitude": -122.5027018,
    "recentMemberCount": 0
  },
  {
    "name": "Crestview Barbell",
    "address": "207 N Brett Street, Crestview, Florida, United States of America, 32539",
    "latitude": 30.7596959,
    "longitude": -86.5679266,
    "recentMemberCount": 1
  },
  {
    "name": "Lake City Barbell",
    "address": "3909 Abernathy Farm Way, Acworth, Georgia, United States of America, 30101",
    "latitude": 34.0504475,
    "longitude": -84.6994108,
    "recentMemberCount": 0
  },
  {
    "name": "Christina&Kelly;",
    "address": "30 Cimino Drive, Colorado Springs, Colorado, United States of America, 80903",
    "latitude": 38.8323588,
    "longitude": -104.8314089,
    "recentMemberCount": 0
  },
  {
    "name": "Club Dub",
    "address": "9307 Curry Ford Rd, Orlando, Florida, United States of America, 32825",
    "latitude": 28.5133841,
    "longitude": -81.2548099,
    "recentMemberCount": 0
  },
  {
    "name": "Coffee Weightlifting Team",
    "address": "159 Trojan Way, Douglas, Georgia, United States of America, 31533",
    "latitude": 31.5526373,
    "longitude": -82.8613832,
    "recentMemberCount": 2
  },
  {
    "name": "EMINENCE BARBELL CLUB",
    "address": "864 E 78th Ave, Thornton, Colorado, United States of America, 80229",
    "latitude": 39.8566801,
    "longitude": -104.9712205,
    "recentMemberCount": 0
  },
  {
    "name": "FORNEY BARBELL CLUB",
    "address": "20 Mustang Ct., Forney, Texas, United States of America, 75126",
    "latitude": 32.7500175,
    "longitude": -96.4560747,
    "recentMemberCount": 2
  },
  {
    "name": "Friendswood Highschool Weightlifting Club",
    "address": "702 Greenbriar Dr, Friendswood, Texas, United States of America, 77546",
    "latitude": 29.5245329,
    "longitude": -95.1931697,
    "recentMemberCount": 3
  },
  {
    "name": "Hungry dog barbell",
    "address": "2119 W Main Street, Norristown, Pennsylvania, United States of America, 19403",
    "latitude": 40.1173352,
    "longitude": -75.3502841,
    "recentMemberCount": 0
  },
  {
    "name": "HUSZKA WEIGHTLIFTING CLUB",
    "address": "111 E Old Settlers Blvd, Round Rock, Texas, United States of America, 78664",
    "latitude": 30.5336511,
    "longitude": -97.6854993,
    "recentMemberCount": 1
  },
  {
    "name": "Iron Acres Barbell",
    "address": "41745 NW Wilkesboro RD, Banks, Oregon, United States of America, 97106",
    "latitude": 45.6073966,
    "longitude": -123.1066203,
    "recentMemberCount": 3
  },
  {
    "name": "Ironside Weightlifting",
    "address": "935 SE Ankeny St, Portland, Oregon, United States of America, 97214",
    "latitude": 45.5224491,
    "longitude": -122.6559505,
    "recentMemberCount": 0
  },
  {
    "name": "Just Commit Performance",
    "address": "43761 Parkhurst Plaza, 150 B, Ashburn, Virginia, United States of America, 20147",
    "latitude": 36.6878242,
    "longitude": -76.229921,
    "recentMemberCount": 0
  },
  {
    "name": "Karchut Barbell",
    "address": "920 N Montana Street, Dillon, Montana, United States of America, 59725",
    "latitude": 45.2182713,
    "longitude": -112.6368046,
    "recentMemberCount": 0
  },
  {
    "name": "Mach10 Weightlifting Club",
    "address": "15265 Display Ct, Rockville, Maryland, United States of America, 20850",
    "latitude": 39.0873569,
    "longitude": -77.1883925,
    "recentMemberCount": 0
  },
  {
    "name": "MAX KANE BARBELL",
    "address": "6864 Eldorado Rd, Federalsburg, Maryland, United States of America, 21632",
    "latitude": 38.7001732,
    "longitude": -75.7731857,
    "recentMemberCount": 1
  },
  {
    "name": "MaximusTrainingCo",
    "address": "314 South Street, Vass, North Carolina, United States of America, 28394",
    "latitude": 35.2488079,
    "longitude": -79.2859736,
    "recentMemberCount": 0
  },
  {
    "name": "Mind Forge CrossFit",
    "address": "17649 US Hwy 27, Bldg B, Unit 8, Clermont, Florida, United States of America, 34715",
    "latitude": 28.6127638,
    "longitude": -81.7365641,
    "recentMemberCount": 0
  },
  {
    "name": "New Berlin Barbell Club",
    "address": "2865 S. 160th St., New Berlin, Wisconsin, United States of America, 53151",
    "latitude": 42.9926254,
    "longitude": -88.1146884,
    "recentMemberCount": 0
  },
  {
    "name": "PTW Training",
    "address": "610 Indeneer Drive, Kernersville, North Carolina, United States of America, 27284",
    "latitude": 36.1004419,
    "longitude": -80.0692905,
    "recentMemberCount": 0
  },
  {
    "name": "Timberwolf Strength",
    "address": "8650 Conifer Rd, Thornton, Colorado, United States of America, 80260",
    "latitude": 39.8663765,
    "longitude": -104.9950843,
    "recentMemberCount": 0
  },
  {
    "name": "Bobcat Barbell",
    "address": "1405 United Dr., 109, San Marcos, Texas, United States of America, 78666",
    "latitude": 29.8699192,
    "longitude": -97.9504145,
    "recentMemberCount": 5
  },
  {
    "name": "Level Up Barbell Club",
    "address": "16939 E. Colony Dr., Fountain Hills, Arizona, United States of America, 85268",
    "latitude": 33.5836451,
    "longitude": -111.7327709,
    "recentMemberCount": 0
  },
  {
    "name": "Anchored and Risen Barbell Club",
    "address": "120 Security Ct, Wylie, Texas, United States of America, 75098",
    "latitude": 33.009695,
    "longitude": -96.577688,
    "recentMemberCount": 1
  },
  {
    "name": "Blackheart Barbell",
    "address": "1261 hargett st, Jacksonville, North Carolina, United States of America, 28540",
    "latitude": 34.7524468,
    "longitude": -77.4108008,
    "recentMemberCount": 1
  },
  {
    "name": "Bring The Thunder",
    "address": "17081 Cam Ct, Fort Myers, Florida, United States of America, 33967",
    "latitude": 26.4651242,
    "longitude": -81.8000532,
    "recentMemberCount": 0
  },
  {
    "name": "Built By Becker- Crossfit Herndon",
    "address": "293 Sunset Park Drive, Herndon, Virginia, United States of America, 20170",
    "latitude": 36.6878242,
    "longitude": -76.229921,
    "recentMemberCount": 0
  },
  {
    "name": "Bujanda Strong",
    "address": "12221 Schlayer Ave, Baton Rouge, Louisiana, United States of America, 70816",
    "latitude": 30.4223951,
    "longitude": -91.0446567,
    "recentMemberCount": 2
  },
  {
    "name": "HFB Weightlifting",
    "address": "Marine Corps Air Ground Combat Center, Bldg 1508, Twentynine Palms, California, United States of America, 92277",
    "latitude": 34.1356915,
    "longitude": -116.0543506,
    "recentMemberCount": 0
  },
  {
    "name": "Hive Weightlifting",
    "address": "600 W. Liberty St, Medina, Ohio, United States of America, 44256",
    "latitude": 41.1446536,
    "longitude": -81.8897045,
    "recentMemberCount": 1
  },
  {
    "name": "Ischyros",
    "address": "1314 SW Pine Avenue, Live Oak, Florida, United States of America, 32060",
    "latitude": 30.2853991,
    "longitude": -82.9916731,
    "recentMemberCount": 2
  },
  {
    "name": "Kilo Coalition",
    "address": "180 Johnson Street, Middletown, Connecticut, United States of America, 06457",
    "latitude": 41.5720433,
    "longitude": -72.657843,
    "recentMemberCount": 1
  },
  {
    "name": "Kingman Barbell Club",
    "address": "4165 N Bank St, Kingman, Arizona, United States of America, 86401",
    "latitude": 35.2442283,
    "longitude": -114.011625,
    "recentMemberCount": 1
  },
  {
    "name": "Maui Strong",
    "address": "41 E Lipoa St, Kihei, Hawaii, United States of America, 96753",
    "latitude": 20.7479538,
    "longitude": -156.4525514,
    "recentMemberCount": 1
  },
  {
    "name": "Synergy Barbell",
    "address": "Myrtle Beach, South Carolina, United States of America, 29588",
    "latitude": 33.6956461,
    "longitude": -78.8900409,
    "recentMemberCount": 0
  },
  {
    "name": "TEAM CONNECTICUT",
    "address": "53 Longmeadows Road, Wilton, Connecticut, United States of America, 06897",
    "latitude": 41.2378745,
    "longitude": -73.4782857,
    "recentMemberCount": 1
  },
  {
    "name": "West Chester Weightlifting",
    "address": "1045 Andrew Dr, Suite C2, West Chester, Pennsylvania, United States of America, 19380",
    "latitude": 39.9904396,
    "longitude": -75.5935414,
    "recentMemberCount": 0
  },
  {
    "name": "Zion Barbell",
    "address": "1758 S. Camino Real, Washington, Utah, United States of America, 84780",
    "latitude": 37.1066306,
    "longitude": -113.4937148,
    "recentMemberCount": 2
  },
  {
    "name": "Astoria Barbell Club",
    "address": "3656 38th st, 2nd floor, Long Island City, New York, United States of America, 11101",
    "latitude": 40.7484442,
    "longitude": -73.9388347,
    "recentMemberCount": 0
  },
  {
    "name": "Big Blue Weightlifting",
    "address": "242 Southland Drive, Lexington, Kentucky, United States of America, 40503",
    "latitude": 38.0133177,
    "longitude": -84.5214385,
    "recentMemberCount": 0
  },
  {
    "name": "MGP Strength",
    "address": "652 E 60th Ave N, Wellington, Kansas, United States of America, 67152",
    "latitude": 37.2632023,
    "longitude": -97.402191,
    "recentMemberCount": 0
  },
  {
    "name": "Circle City Strength",
    "address": "2495 Directors Row, Suite EF, Indianapolis, Indiana, United States of America, 46241",
    "latitude": 39.7396043,
    "longitude": -86.2516168,
    "recentMemberCount": 0
  },
  {
    "name": "Conviction Barbell",
    "address": "1 New Orleans Rd, Unit C, Hilton Head Island, South Carolina, United States of America, 29928",
    "latitude": 32.1605029,
    "longitude": -80.7520144,
    "recentMemberCount": 0
  },
  {
    "name": "DC Barbell",
    "address": "1011 4th St Nw, Washington, District of Columbia, United States of America, 20001",
    "latitude": 38.902741,
    "longitude": -77.016066,
    "recentMemberCount": 0
  },
  {
    "name": "Diablo Strong",
    "address": "2447 Estand Way, Pleasant Hill, California, United States of America, 94523",
    "latitude": 37.9413737,
    "longitude": -122.0533169,
    "recentMemberCount": 2
  },
  {
    "name": "GRASS IRON WEIGHTLIFTING",
    "address": "5555 N Lamar B110, Austin, Texas, United States of America, 78751",
    "latitude": 30.3107126,
    "longitude": -97.723446,
    "recentMemberCount": 0
  },
  {
    "name": "Hammer Strength WLC",
    "address": "537 N Cleveland Massillon Rd., AKRON, Ohio, United States of America, 44333",
    "latitude": 41.1396405,
    "longitude": -81.617108,
    "recentMemberCount": 0
  },
  {
    "name": "Haven of Strength",
    "address": "600 6th St SE, Winter Haven, Florida, United States of America, 33880",
    "latitude": 28.014854,
    "longitude": -81.718443,
    "recentMemberCount": 0
  },
  {
    "name": "Heavy Athletics",
    "address": "5254 N. Meadows Dr., Castle Rock, Colorado, United States of America, 80109",
    "latitude": 39.4129217,
    "longitude": -104.8940255,
    "recentMemberCount": 1
  },
  {
    "name": "Iron Brotherhood",
    "address": "3000 SW 87th Ave, Miami, Florida, United States of America, 33175",
    "latitude": 25.7416476,
    "longitude": -80.3386201,
    "recentMemberCount": 2
  },
  {
    "name": "KG Strength Training",
    "address": "2700 E Brown Rd, Mesa, Arizona, United States of America, 85213",
    "latitude": 33.4401033,
    "longitude": -111.773122,
    "recentMemberCount": 0
  },
  {
    "name": "Lorton Barbell Club",
    "address": "7406D Lockport Place, Lorton, Virginia, United States of America, 22079",
    "latitude": 36.6878242,
    "longitude": -76.229921,
    "recentMemberCount": 1
  },
  {
    "name": "MOORESTOWN WLC",
    "address": "111 W. 2nd Street, Moorestown, New Jersey, United States of America, 08057",
    "latitude": 39.9641893,
    "longitude": -74.9494495,
    "recentMemberCount": 2
  },
  {
    "name": "Myo Barbell",
    "address": "3560 Charter Park Dr., San Jose, California, United States of America, 95136",
    "latitude": 37.2794121,
    "longitude": -121.8491634,
    "recentMemberCount": 1
  },
  {
    "name": "NorCal Weightlifting",
    "address": "1106 N. D st., Suite 7, Sacramento, California, United States of America, 95811",
    "latitude": 38.5765928,
    "longitude": -121.4873706,
    "recentMemberCount": 1
  },
  {
    "name": "NTC Box Fitness",
    "address": "127 Inner Loop Dr, Fort Irwin, California, United States of America, 92310",
    "latitude": 35.2715267,
    "longitude": -116.7113941,
    "recentMemberCount": 0
  },
  {
    "name": "One Rep Weightlifting",
    "address": "207 S Westgate Dr., Suite A, Greensboro, North Carolina, United States of America, 27407",
    "latitude": 36.0337077,
    "longitude": -79.8697388,
    "recentMemberCount": 0
  },
  {
    "name": "Pinnacle Weightlifting",
    "address": "4858 Northpark Drive, Colorado Springs, Colorado, United States of America, 80918",
    "latitude": 38.9012705,
    "longitude": -104.8264082,
    "recentMemberCount": 1
  },
  {
    "name": "POWER AND GRACE PERFORMANCE.",
    "address": "5818 West Pierce Street, West Allis, Wisconsin, United States of America, 53214",
    "latitude": 43.0237907,
    "longitude": -87.9860983,
    "recentMemberCount": 8
  },
  {
    "name": "R 3 Weightlifting",
    "address": "7399 Longleaf Pine Parkway, St. Johns, Florida, United States of America, 32259",
    "latitude": 30.046793,
    "longitude": -81.613558,
    "recentMemberCount": 1
  },
  {
    "name": "Carlmont Scots Athletics",
    "address": "1400 Alameda De Las Pulgas, Belmont, California, United States of America, 94402",
    "latitude": 37.5051367,
    "longitude": -122.288723,
    "recentMemberCount": 0
  },
  {
    "name": "People's Republic of The Dojo",
    "address": "36 landies Lane, Leominster, Massachusetts, United States of America, 01453",
    "latitude": 42.5310718,
    "longitude": -71.7548222,
    "recentMemberCount": 2
  },
  {
    "name": "Black Tree Barbell Club",
    "address": "805 South Ave, Grand Junction, Colorado, United States of America, 81507",
    "latitude": 39.0630082,
    "longitude": -108.5591377,
    "recentMemberCount": 0
  },
  {
    "name": "Bowling Green Barbell Club",
    "address": "148 Dishman Lane, Bowling Green, Kentucky, United States of America, 42101",
    "latitude": 36.9523773,
    "longitude": -86.4762813,
    "recentMemberCount": 0
  },
  {
    "name": "Crossfit Tempe",
    "address": "6426 S McClintock Dr, Tempe, Arizona, United States of America, 85283",
    "latitude": 33.3629504,
    "longitude": -111.9128165,
    "recentMemberCount": 0
  },
  {
    "name": "FOGO BarBell",
    "address": "4619 S. Congress Ave. Suite D, Austin, Texas, United States of America, 78745",
    "latitude": 30.2091254,
    "longitude": -97.7920726,
    "recentMemberCount": 1
  },
  {
    "name": "Littleton Performance Barbell",
    "address": "1020 E Floyd Ave, Englewood, Colorado, United States of America, 80113",
    "latitude": 39.6567126,
    "longitude": -104.9755078,
    "recentMemberCount": 2
  },
  {
    "name": "Oro Strength",
    "address": "6845 W Pinto Rd, Sahuarita, Arizona, United States of America, 85629",
    "latitude": 31.9642734,
    "longitude": -110.98614,
    "recentMemberCount": 0
  },
  {
    "name": "PERFORMANCE ONE WEIGHTLIFTING",
    "address": "5616 E. Main Street, Mesa, Arizona, United States of America, 85205",
    "latitude": 33.4156645,
    "longitude": -111.7101272,
    "recentMemberCount": 4
  },
  {
    "name": "PWRBLD Barbell Club",
    "address": "1661 Easton Rd Unit C-1, Warrington, Pennsylvania, United States of America, 18976",
    "latitude": 40.240415,
    "longitude": -75.1352617,
    "recentMemberCount": 1
  },
  {
    "name": "RAWW Barbell",
    "address": "641 Academy Drive, Northbrook, Illinois, United States of America, 60062",
    "latitude": 42.1414237,
    "longitude": -87.856765,
    "recentMemberCount": 0
  },
  {
    "name": "Rival Fitness and Weightlifting",
    "address": "4131 Knight Avenue, Waycross, Georgia, United States of America, 31503",
    "latitude": 31.2127075,
    "longitude": -82.352701,
    "recentMemberCount": 0
  },
  {
    "name": "Rockford Barbell",
    "address": "213 N 3rd St, Rockford, Illinois, United States of America, 61107",
    "latitude": 42.2681636,
    "longitude": -89.0852594,
    "recentMemberCount": 1
  },
  {
    "name": "RoseCity Barbell",
    "address": "9385 SW Greenburg Rd., Suite 100, Portland, Oregon, United States of America, 97223",
    "latitude": 45.4403584,
    "longitude": -122.7841637,
    "recentMemberCount": 2
  },
  {
    "name": "Speed Power Strength",
    "address": "2140 Livingston, Oakland, California, United States of America, 94606",
    "latitude": 37.7809249,
    "longitude": -122.2406879,
    "recentMemberCount": 2
  },
  {
    "name": "Strength Academy Weightlifting",
    "address": "2015 7th St, Ste B, Albuquerque, New Mexico, United States of America, 87102",
    "latitude": 35.0861815,
    "longitude": -106.6475286,
    "recentMemberCount": 2
  },
  {
    "name": "Strength Ratio",
    "address": "829 Riverside Drive, Asheville, North Carolina, United States of America, 28801",
    "latitude": 35.6146362,
    "longitude": -82.5746172,
    "recentMemberCount": 0
  },
  {
    "name": "Strong Weightlifting",
    "address": "4207 Simonton Rd, Farmers Branch, Texas, United States of America, 75244",
    "latitude": 32.9308452,
    "longitude": -96.8306411,
    "recentMemberCount": 1
  },
  {
    "name": "TEAM FLORIDA GULFCOAST WL",
    "address": "3210 59th Ave Dr E, Unit 103, Bradenton, Florida, United States of America, 34201",
    "latitude": 27.4000391,
    "longitude": -82.4681229,
    "recentMemberCount": 1
  },
  {
    "name": "TORQUE BARBELL",
    "address": "1480 Weir Dr - Ste 300, Woodbury, Minnesota, United States of America, 55125",
    "latitude": 44.910425,
    "longitude": -92.9449436,
    "recentMemberCount": 2
  },
  {
    "name": "Valley Strength Weightlifting",
    "address": "745 Main St, Dallas, Oregon, United States of America, 97388",
    "latitude": 44.8750979,
    "longitude": -124.0345449,
    "recentMemberCount": 1
  },
  {
    "name": "4 Star Strength",
    "address": "12620 Newburgh rd, Livonia, Michigan, United States of America, 48150",
    "latitude": 42.3757997,
    "longitude": -83.4116129,
    "recentMemberCount": 3
  },
  {
    "name": "Iron Grit Barbell",
    "address": "1300 Dorado Dr, Granbury, Texas, United States of America, 76048",
    "latitude": 32.4325105,
    "longitude": -97.7978073,
    "recentMemberCount": 0
  },
  {
    "name": "Locked & Loaded Strength",
    "address": "14411 Coil Plus Dr, Plainfield, Illinois, United States of America, 60544",
    "latitude": 41.6217551,
    "longitude": -88.2168442,
    "recentMemberCount": 1
  },
  {
    "name": "MALVERN WEIGHTLIFTING CLUB",
    "address": "418 s. Warren Avenue, Malvern, Pennsylvania, United States of America, 19355",
    "latitude": 40.0269975,
    "longitude": -75.5122934,
    "recentMemberCount": 0
  },
  {
    "name": "SENSE Weightlifting Village",
    "address": "13079 Springdale St, Westminster, California, United States of America, 92683",
    "latitude": 33.772269,
    "longitude": -118.023933,
    "recentMemberCount": 0
  },
  {
    "name": "Tank Nation",
    "address": "2913 NE Jacksonville Rd, Ocala, Florida, United States of America, 34479",
    "latitude": 29.2172473,
    "longitude": -82.125381,
    "recentMemberCount": 0
  },
  {
    "name": "TEAM OMNIA",
    "address": "6850 sw 19th ave, Pembroke Pines, Florida, United States of America, 33332",
    "latitude": 26.0742497,
    "longitude": -80.4009507,
    "recentMemberCount": 2
  },
  {
    "name": "TEAM SAVANNAH",
    "address": "7232 Varnedoe Drive, Savannah, Georgia, United States of America, 31406",
    "latitude": 31.9922445,
    "longitude": -81.0805502,
    "recentMemberCount": 1
  },
  {
    "name": "Texas A&M Aggie Weightlifting",
    "address": "303 Dominik Dr, College Station, Texas, United States of America, 77840",
    "latitude": 30.6194139,
    "longitude": -96.3208674,
    "recentMemberCount": 1
  },
  {
    "name": "MISSISSIPPI BARBELL",
    "address": "210 Industrial Cove, Ridgeland, Mississippi, United States of America, 39157",
    "latitude": 32.4220972,
    "longitude": -90.1417672,
    "recentMemberCount": 2
  },
  {
    "name": "Town Barbell",
    "address": "3914 6th Ave, Tacoma, Washington, United States of America, 98406",
    "latitude": 47.2551113,
    "longitude": -122.4898848,
    "recentMemberCount": 0
  },
  {
    "name": "Empire Weightlifting",
    "address": "80 Smokey Hollow Rd Unit 2, Baldwinsville, New York, United States of America, 13027",
    "latitude": 43.1614156,
    "longitude": -76.3203163,
    "recentMemberCount": 4
  },
  {
    "name": "Feel The Steel Barbell Club",
    "address": "821 Kuhn Dr. #106, Chula Vista, California, United States of America, 91914",
    "latitude": 32.6642129,
    "longitude": -116.9579477,
    "recentMemberCount": 1
  },
  {
    "name": "Freedom Weightlifting",
    "address": "1109 Old Okeechobee Rd, West Palm Beach, Florida, United States of America, 33401",
    "latitude": 26.70097,
    "longitude": -80.0639815,
    "recentMemberCount": 2
  },
  {
    "name": "Propulsion Wellness Barbell Club",
    "address": "2008 Dover Rd #2, Epsom, New Hampshire, United States of America, 03234",
    "latitude": 43.2266707,
    "longitude": -71.3458249,
    "recentMemberCount": 0
  },
  {
    "name": "Scarsdale High School",
    "address": "1057 Post Road, Scarsdale, New York, United States of America, 10583",
    "latitude": 40.9945225,
    "longitude": -73.7935612,
    "recentMemberCount": 0
  },
  {
    "name": "TEAM TEXAS",
    "address": "3000 Invincible Circle, League City, Texas, United States of America, 77573",
    "latitude": 29.541596,
    "longitude": -95.06375,
    "recentMemberCount": 2
  },
  {
    "name": "TEAM WESTERN NEW YORK",
    "address": "3946 Broadway, Depew, New York, United States of America, 14043",
    "latitude": 42.9056894,
    "longitude": -78.7273558,
    "recentMemberCount": 1
  },
  {
    "name": "Category 5 Athletics",
    "address": "1705 W Chestnut St, Tampa, Florida, United States of America, 33607",
    "latitude": 27.9586785,
    "longitude": -82.4880518,
    "recentMemberCount": 3
  },
  {
    "name": "CHFP WEIGHTLIFTING CLUB",
    "address": "6295 Edsall Road, Suite 182, Alexandria, Virginia, United States of America, 22312",
    "latitude": 36.6878242,
    "longitude": -76.229921,
    "recentMemberCount": 3
  },
  {
    "name": "Geno Athletics",
    "address": "5322 NW 92nd Way, Gainesville, Florida, United States of America, 32653",
    "latitude": 29.7084652,
    "longitude": -82.3895233,
    "recentMemberCount": 0
  },
  {
    "name": "HOOSIER BARBELL CLUB",
    "address": "Crown Point High School, 1500 South Main, Crown Point, Indiana, United States of America, 46307",
    "latitude": 41.417722,
    "longitude": -87.3643641,
    "recentMemberCount": 3
  },
  {
    "name": "Iron Wolf Weightlifting",
    "address": "1633 Celebration Way, Nashville, Tennessee, United States of America, 37211",
    "latitude": 36.0301298,
    "longitude": -86.7168054,
    "recentMemberCount": 1
  },
  {
    "name": "KC WEIGHTLIFTING",
    "address": "5809 Johnson Dr., Mission, Kansas, United States of America, 66212",
    "latitude": 39.0219398,
    "longitude": -94.6530392,
    "recentMemberCount": 6
  },
  {
    "name": "Kenmore Barbell Club",
    "address": "7524 NE 175th St, Kenmore, Washington, United States of America, 98208",
    "latitude": 47.7562803,
    "longitude": -122.2398713,
    "recentMemberCount": 1
  },
  {
    "name": "Kratos Strength Lab",
    "address": "740 S Pierce Ave, #5, Louisville, Colorado, United States of America, 80027",
    "latitude": 39.9590994,
    "longitude": -105.1215172,
    "recentMemberCount": 0
  },
  {
    "name": "LBH OF NYC DEPT OF PARKS",
    "address": "93-29 Queens Blvd, Rego Park, New York, United States of America, 11374",
    "latitude": 40.7318159,
    "longitude": -73.8655024,
    "recentMemberCount": 1
  },
  {
    "name": "Legacy Barbell",
    "address": "2200 Graham Avenue, Redondo Beach, California, United States of America, 90278",
    "latitude": 33.87932,
    "longitude": -118.3726,
    "recentMemberCount": 0
  },
  {
    "name": "LONG ISLAND WLC",
    "address": "111 Division Ave., Levittown, New York, United States of America, 11756",
    "latitude": 40.727851,
    "longitude": -73.5274589,
    "recentMemberCount": 3
  },
  {
    "name": "LSU - Shreveport",
    "address": "1 University Place, HPE 211, Shreveport, Louisiana, United States of America, 71115",
    "latitude": 32.2868344,
    "longitude": -93.5855029,
    "recentMemberCount": 0
  },
  {
    "name": "MASS Strength",
    "address": "72 Grove Street, Franklin, Massachusetts, United States of America, 02038",
    "latitude": 42.0810769,
    "longitude": -71.423203,
    "recentMemberCount": 1
  },
  {
    "name": "No Guts No Glory BBC",
    "address": "413 E. Lockeford St., Lodi, California, United States of America, 95240",
    "latitude": 38.1382517,
    "longitude": -121.2648435,
    "recentMemberCount": 0
  },
  {
    "name": "Red Panda Strength",
    "address": "6 Enterprise Ct, Sewell, New Jersey, United States of America, 08080",
    "latitude": 39.746668,
    "longitude": -75.0839297,
    "recentMemberCount": 0
  },
  {
    "name": "Shark City Barbell Club",
    "address": "350 Lincoln Ave, San Jose, California, United States of America, 95126",
    "latitude": 37.3221368,
    "longitude": -121.9078869,
    "recentMemberCount": 0
  },
  {
    "name": "STRONGHOLD BARBELL CLUB",
    "address": "203 S Koren Road Suite 100, Spokane Valley, Washington, United States of America, 99212",
    "latitude": 47.672134,
    "longitude": -117.3023433,
    "recentMemberCount": 0
  },
  {
    "name": "Summit Barbell",
    "address": "1718 W. Chicago Ave, Chicago, Illinois, United States of America, 60622",
    "latitude": 41.8961639,
    "longitude": -87.6705442,
    "recentMemberCount": 3
  },
  {
    "name": "Sunset Barbell Club",
    "address": "99 Sunset Blvd, Lady's Island, South Carolina, United States of America, 29906",
    "latitude": 32.444887,
    "longitude": -80.7514952,
    "recentMemberCount": 0
  },
  {
    "name": "Two White Lights Weightlifting",
    "address": "Saint Petersburg, Florida, United States of America",
    "latitude": 27.7700475,
    "longitude": -82.6359078,
    "recentMemberCount": 0
  },
  {
    "name": "BURNSVILLE WEIGHTLIFTING CLUB",
    "address": "600 East Hwy 13, Burnsville, Minnesota, United States of America, 55337",
    "latitude": 44.7688945,
    "longitude": -93.2734975,
    "recentMemberCount": 0
  },
  {
    "name": "Boombox Barbell",
    "address": "8501 Als Way, Louisville, Kentucky, United States of America, 40214",
    "latitude": 38.1274367,
    "longitude": -85.7736652,
    "recentMemberCount": 1
  },
  {
    "name": "Built By Becker- nZone/Chantilly",
    "address": "14550 Lee Road, Chantilly, Virginia, United States of America, 20151",
    "latitude": 38.8966513,
    "longitude": -77.4478363,
    "recentMemberCount": 0
  },
  {
    "name": "Club Sandwich Barbell",
    "address": "3200 Schofield Ave, Ste 2, Weston, Wisconsin, United States of America, 54476",
    "latitude": 44.9015983,
    "longitude": -89.5702935,
    "recentMemberCount": 0
  },
  {
    "name": "Conqueror Weightlifting",
    "address": "20343 Blondo Parkway, Suite 104, Elkhorn, Nebraska, United States of America, 68022",
    "latitude": 41.2528631,
    "longitude": -96.2413462,
    "recentMemberCount": 2
  },
  {
    "name": "Emory University Weightlifting Club",
    "address": "26 Eagle Row, Atlanta, Georgia, United States of America, 30322",
    "latitude": 33.7933407,
    "longitude": -84.3259774,
    "recentMemberCount": 0
  },
  {
    "name": "Florida Elite",
    "address": "190 Old Dixie Hwy, Vero Beach, Florida, United States of America, 32960",
    "latitude": 27.6380842,
    "longitude": -80.398926,
    "recentMemberCount": 4
  },
  {
    "name": "Fortis Weightlifting Club",
    "address": "2420 Comanche Rd. NE, Suite G1, Albuquerque, New Mexico, United States of America, 87107",
    "latitude": 35.1406025,
    "longitude": -106.6303354,
    "recentMemberCount": 0
  },
  {
    "name": "Fulcrum Barbell Club",
    "address": "15310 NE 96TH PL, REDMOND, Washington, United States of America, 98052",
    "latitude": 47.6870169,
    "longitude": -122.1353437,
    "recentMemberCount": 1
  },
  {
    "name": "Greenlight Weightlifting",
    "address": "5 Gumtree Rd, Unit I-30, Hilton Head, South Carolina, United States of America, 29926",
    "latitude": 32.2074307,
    "longitude": -80.7383212,
    "recentMemberCount": 0
  },
  {
    "name": "HIGH DESERT ATHLETIC CLUB",
    "address": "1433 Dennison Road SW, Albuquerque, New Mexico, United States of America, 87105",
    "latitude": 35.0735866,
    "longitude": -106.7040256,
    "recentMemberCount": 2
  },
  {
    "name": "Jake Pudenz Strength & Power",
    "address": "4367 Merle Hay Rd, Des Moines, Iowa, United States of America, 50310",
    "latitude": 41.6410711,
    "longitude": -93.6963294,
    "recentMemberCount": 1
  },
  {
    "name": "K'Hai Bar",
    "address": "2252 Quarry Ln, Onalaska, Wisconsin, United States of America, 54650",
    "latitude": 43.8884912,
    "longitude": -91.2239912,
    "recentMemberCount": 0
  },
  {
    "name": "LIC Barbell Club",
    "address": "10-19 46th Rd, Long Island City, New York, United States of America, 11101",
    "latitude": 40.7462372,
    "longitude": -73.9520429,
    "recentMemberCount": 0
  },
  {
    "name": "Maximum Weightlifting",
    "address": "1619 Seabright Ave, Santa Cruz, California, United States of America, 95062",
    "latitude": 36.979081,
    "longitude": -122.010149,
    "recentMemberCount": 0
  },
  {
    "name": "Missouri Valley College Weightlifting",
    "address": "500 E. College Street, Marshall, Missouri, United States of America, 65340",
    "latitude": 39.1064411,
    "longitude": -93.1907708,
    "recentMemberCount": 0
  },
  {
    "name": "Red Line Weightlifting",
    "address": "50 Sisterhen Ct SW, Navarre, Ohio, United States of America, 44662",
    "latitude": 40.71954,
    "longitude": -81.5236015,
    "recentMemberCount": 0
  },
  {
    "name": "Revolution Barbell Club",
    "address": "10643 Wolf Drive, Huntley, Illinois, United States of America, 60142",
    "latitude": 42.1749884,
    "longitude": -88.4311478,
    "recentMemberCount": 0
  },
  {
    "name": "RUBBER CITY WEIGHTLIFTING",
    "address": "4264 Strausser St. NW, North Canton, Ohio, United States of America, 44720",
    "latitude": 40.8883506,
    "longitude": -81.4228691,
    "recentMemberCount": 6
  },
  {
    "name": "Sanctuary Barbell",
    "address": "5444 E Washington St, Ste 3, Phoenix, Arizona, United States of America, 85034",
    "latitude": 33.4349109,
    "longitude": -112.019178,
    "recentMemberCount": 4
  },
  {
    "name": "SBSC Weightlifting",
    "address": "1857 Woodland Avenue Extension, Punxsutawney, Pennsylvania, United States of America, 15767",
    "latitude": 40.9509725,
    "longitude": -78.9746892,
    "recentMemberCount": 0
  },
  {
    "name": "Austin Barbell",
    "address": "714 Shelby Lane, Unit F, Austin, Texas, United States of America, 78745",
    "latitude": 30.2091254,
    "longitude": -97.7920726,
    "recentMemberCount": 6
  },
  {
    "name": "Axle Weightlifting",
    "address": "301 W 4th St, Tucson,, Arizona, United States of America, 85705",
    "latitude": 32.230201,
    "longitude": -110.976496,
    "recentMemberCount": 0
  },
  {
    "name": "Boulder Barbell Club",
    "address": "4919 North Broadway, Unit 50, Boulder, Colorado, United States of America, 80304",
    "latitude": 40.0396642,
    "longitude": -105.2768679,
    "recentMemberCount": 1
  },
  {
    "name": "Common Ground Weightlifting",
    "address": "2820 SE 8th, Portland, Oregon, United States of America, 97202",
    "latitude": 45.5024994,
    "longitude": -122.6576752,
    "recentMemberCount": 0
  },
  {
    "name": "Kaizen Strength",
    "address": "1277 Rushing Drive, Orange Park, Florida, United States of America, 32065",
    "latitude": 30.1399188,
    "longitude": -81.8096615,
    "recentMemberCount": 1
  },
  {
    "name": "Mid Mitten Barbell Club",
    "address": "701 E. South Street, Unit O2, Lansing, Michigan, United States of America, 48910\r\n",
    "latitude": 42.7043239,
    "longitude": -84.5440257,
    "recentMemberCount": 1
  },
  {
    "name": "MYLES AHEAD WEIGHTLIFTING",
    "address": "333 Speedway Cir, Lincoln, Nebraska, United States of America, 68502",
    "latitude": 40.7844441,
    "longitude": -96.7174319,
    "recentMemberCount": 0
  },
  {
    "name": "No Respect 4 Gravity",
    "address": "12330 SW 53rd Street unit 708, Pembroke Pines, Florida, United States of America, 33330",
    "latitude": 26.0620973,
    "longitude": -80.3179471,
    "recentMemberCount": 4
  },
  {
    "name": "NYC Barbell Club",
    "address": "361 W 36th Street, New York, New York, United States of America, 10018",
    "latitude": 40.7545933,
    "longitude": -73.9946888,
    "recentMemberCount": 0
  },
  {
    "name": "Philosophical Weightlifting",
    "address": "24 copper creek ct, morgantown, West Virginia, United States of America, 26505",
    "latitude": 39.6437278,
    "longitude": -79.9533157,
    "recentMemberCount": 0
  },
  {
    "name": "PR WEIGHTLIFTING",
    "address": "14836 Densmore Ave N, Shoreline, Washington, United States of America, 98133",
    "latitude": 47.7369682,
    "longitude": -122.3380366,
    "recentMemberCount": 0
  },
  {
    "name": "Prosperity Barbell",
    "address": "83 Morse St, BLD 5b, Norwood, Massachusetts, United States of America, 02062",
    "latitude": 42.1873632,
    "longitude": -71.2029392,
    "recentMemberCount": 0
  },
  {
    "name": "Pure Health Barbell",
    "address": "120 S. Seneca Ave., Bartlesville, Oklahoma, United States of America, 74003",
    "latitude": 36.7492436,
    "longitude": -95.9688582,
    "recentMemberCount": 3
  },
  {
    "name": "Rise Weightlifting",
    "address": "1232 Winter Garden Vineland Road #116, Winter Garden, Florida, United States of America, 34787",
    "latitude": 28.5423837,
    "longitude": -81.5975692,
    "recentMemberCount": 2
  },
  {
    "name": "Rizk weightlifting",
    "address": "120 Commerce Cir, Suite 400/500/600, kearneysville, West Virginia, United States of America, 25414",
    "latitude": 39.2773078,
    "longitude": -77.8685019,
    "recentMemberCount": 0
  },
  {
    "name": "Roan Cliff Weightlifting",
    "address": "1432 Arabian Ave., Rifle, Colorado, United States of America, 81650",
    "latitude": 39.541651,
    "longitude": -107.7743604,
    "recentMemberCount": 0
  },
  {
    "name": "Southern California Weightlifting Club",
    "address": "3595 Cadillac Ave, Unit 103, Costa Mesa, California, United States of America, 92626",
    "latitude": 33.6790726,
    "longitude": -117.9105981,
    "recentMemberCount": 4
  },
  {
    "name": "Southside Barbell Club",
    "address": "8031 Whitebark Terrace, 8031 Whitebark Terrace, Richmond, Virginia, United States of America, 23237",
    "latitude": 36.6878242,
    "longitude": -76.229921,
    "recentMemberCount": 0
  },
  {
    "name": "STONEAGE WEIGHTLIFTING CLUB",
    "address": "E-113 Mini-Dome ETSU, Johnson City, Tennessee, United States of America, 37614",
    "latitude": 36.2905105,
    "longitude": -82.4812728,
    "recentMemberCount": 3
  },
  {
    "name": "Vehement Elite Athletics",
    "address": "3000 Paseo Mercado, Unit #110, Oxnard, California, United States of America, 93036",
    "latitude": 34.2321137,
    "longitude": -119.1726633,
    "recentMemberCount": 1
  },
  {
    "name": "Wellbuilt Strength",
    "address": "1725 Jamieson Ave, B, Alexandria, Virginia, United States of America, 22314",
    "latitude": 38.8032109,
    "longitude": -77.0605211,
    "recentMemberCount": 0
  },
  {
    "name": "Arkitect Fitness",
    "address": "4 Middlesex Rd., Tyngsborough, Massachusetts, United States of America, 01879",
    "latitude": 42.6523541,
    "longitude": -71.4010809,
    "recentMemberCount": 0
  },
  {
    "name": "CANNON FALLS WEIGHTLIFTING",
    "address": "820 E. Minnesota St., Cannon Falls, Minnesota, United States of America, 55009",
    "latitude": 44.5115782,
    "longitude": -92.8903214,
    "recentMemberCount": 3
  },
  {
    "name": "Centre City Weighlifting",
    "address": "81 Sterling Road, Brockton, Massachusetts, United States of America, 02302",
    "latitude": 42.0832415,
    "longitude": -70.9900991,
    "recentMemberCount": 0
  },
  {
    "name": "CLE Barbell Club",
    "address": "1200 E 49th St, Cleveland, Ohio, United States of America, 44114",
    "latitude": 41.5215172,
    "longitude": -81.6607692,
    "recentMemberCount": 2
  },
  {
    "name": "DSP Barbell Club",
    "address": "2927 Beale Ave, Suite 110, Altoona, Pennsylvania, United States of America, 16601",
    "latitude": 40.4984896,
    "longitude": -78.4150718,
    "recentMemberCount": 0
  },
  {
    "name": "Gator Weightlifting",
    "address": "22 NE 11 street, Gainesville, Florida, United States of America, 32601",
    "latitude": 29.6617797,
    "longitude": -82.3380731,
    "recentMemberCount": 2
  },
  {
    "name": "MILWAUKEE BARBELL WEIGHTLIFTING CLUB",
    "address": "1539 W St Paul Ave, Milwaukee, Wisconsin, United States of America, 53233",
    "latitude": 43.0346224,
    "longitude": -87.9328033,
    "recentMemberCount": 1
  },
  {
    "name": "Northern Power WLC",
    "address": "70 Hathaway Point Road, St. Albans, Vermont, United States of America, 05478",
    "latitude": 44.8097804,
    "longitude": -73.1537476,
    "recentMemberCount": 0
  },
  {
    "name": "Notch 8 Barbell",
    "address": "8131 Kingston St, Suite 400, Avon, Indiana, United States of America, 46123",
    "latitude": 39.7664711,
    "longitude": -86.3919965,
    "recentMemberCount": 1
  },
  {
    "name": "Optimus Barbell Club",
    "address": "21006 Bridge St, Southfield, Michigan, United States of America, 48033",
    "latitude": 42.4488298,
    "longitude": -83.2841385,
    "recentMemberCount": 1
  },
  {
    "name": "Pensacola Strength",
    "address": "3720 West Navy Blvd, Pensacola, Florida, United States of America, 32507",
    "latitude": 30.4121964,
    "longitude": -87.2478677,
    "recentMemberCount": 0
  },
  {
    "name": "Santa Cruz Strength Barbell Club",
    "address": "151 Harvey West Blvd. Unit D, Santa Cruz, California, United States of America, 95060",
    "latitude": 37.0195104,
    "longitude": -122.0855607,
    "recentMemberCount": 0
  },
  {
    "name": "Strength Guild Weightlifting Academy",
    "address": "713 N Lindenwood Dr, Olathe, Kansas, United States of America, 66062",
    "latitude": 38.89207,
    "longitude": -94.785633,
    "recentMemberCount": 0
  },
  {
    "name": "Strength Republic",
    "address": "760 Broadway St, El Centro, California, United States of America, 92243",
    "latitude": 32.793963,
    "longitude": -115.5605002,
    "recentMemberCount": 0
  },
  {
    "name": "StrengthFix",
    "address": "5 S Main St, WINCHESTER, Kentucky, United States of America, 40391",
    "latitude": 38.001588,
    "longitude": -84.1728075,
    "recentMemberCount": 0
  },
  {
    "name": "Team Burbank",
    "address": "219 W Palm Ave, Burbank, California, United States of America, 91502",
    "latitude": 34.1767086,
    "longitude": -118.3166236,
    "recentMemberCount": 0
  },
  {
    "name": "Team Florida Pensacola",
    "address": "1722 N. Pace Blvd, Pensacola, Florida, United States of America, 32505",
    "latitude": 30.4218108,
    "longitude": -87.241192,
    "recentMemberCount": 1
  },
  {
    "name": "Team Minnesota",
    "address": "1306 1st Avenue Circle NE, Kasson, Minnesota, United States of America, 55944",
    "latitude": 44.020661,
    "longitude": -92.7428924,
    "recentMemberCount": 2
  },
  {
    "name": "Team Strength Works",
    "address": "8516 Manchester Rd, St. louis, Missouri, United States of America, 63144",
    "latitude": 38.6142445,
    "longitude": -90.3138193,
    "recentMemberCount": 2
  },
  {
    "name": "Team Thick Weightlifting",
    "address": "6420 Gunpark Dr STE B, Boulder, Colorado, United States of America, 80301",
    "latitude": 40.0477499,
    "longitude": -105.2171236,
    "recentMemberCount": 0
  },
  {
    "name": "UVM Weightlifting Club",
    "address": "590 Main St, 311 Dudley H. Davis Center, Burlington, Vermont, United States of America, 05405",
    "latitude": 44.5139695,
    "longitude": -73.2384961,
    "recentMemberCount": 0
  },
  {
    "name": "CALPIANS WLC",
    "address": "16618 35th St. Ct. E., Lake Tapps, Washington, United States of America, 98391",
    "latitude": 47.1282615,
    "longitude": -122.1875717,
    "recentMemberCount": 0
  },
  {
    "name": "Built By Becker- Crossfit 234",
    "address": "3741 Fettler Park Dr, Dumfries, Virginia, United States of America, 22025",
    "latitude": 36.6878242,
    "longitude": -76.229921,
    "recentMemberCount": 0
  },
  {
    "name": "CFC Weightlifting Club",
    "address": "13563 Smith Road, Middleburg heights, Ohio, United States of America, 44136",
    "latitude": 41.3744197,
    "longitude": -81.7889058,
    "recentMemberCount": 1
  },
  {
    "name": "COLORADO WEIGHTLIFTING CLUB",
    "address": "8200 E. Pacific Pl. Unit 110, Denver, CO, Colorado, United States of America, 80231",
    "latitude": 39.6790708,
    "longitude": -104.892601,
    "recentMemberCount": 0
  },
  {
    "name": "Defined Barbell Club",
    "address": "3834 N. Broadway, Chicago, Illinois, United States of America, 60613",
    "latitude": 41.9523379,
    "longitude": -87.6498092,
    "recentMemberCount": 0
  },
  {
    "name": "Greenville Weightlifting",
    "address": "430 Woodruff Rd, suite 550, Greenville, South Carolina, United States of America, 29607",
    "latitude": 34.830452,
    "longitude": -82.3465095,
    "recentMemberCount": 0
  },
  {
    "name": "Harpoon Stone & Barbell Club",
    "address": "3959 N Steele Blvd, FAYETTEVILLE, Arkansas, United States of America, 72703",
    "latitude": 36.1233445,
    "longitude": -94.1570484,
    "recentMemberCount": 0
  },
  {
    "name": "HARRISBURG WEIGHTLIFTING CLUB",
    "address": "7501 Caldwell Rd, Harrisburg, North Carolina, United States of America, 28075",
    "latitude": 35.3153566,
    "longitude": -80.6730094,
    "recentMemberCount": 1
  },
  {
    "name": "Kuma Weightlifting",
    "address": "4112 Brean Down, Pflugerville, Texas, United States of America, 78660",
    "latitude": 30.4433789,
    "longitude": -97.6090059,
    "recentMemberCount": 2
  },
  {
    "name": "Lupo Barbell Club",
    "address": "182 Mulberry St, Basement, New York, New York, United States of America, 10012",
    "latitude": 40.7250595,
    "longitude": -73.9980609,
    "recentMemberCount": 2
  },
  {
    "name": "Olympic Weightlifting Club at The Ohio State University",
    "address": "609 Oakland Park Ave, Unit B, Columbus, Ohio, United States of America, 43214",
    "latitude": 40.0487933,
    "longitude": -83.0140544,
    "recentMemberCount": 3
  },
  {
    "name": "PHILADELPHIA BARBELL",
    "address": "2027 E. Willlard St, Philadelphia, Pennsylvania, United States of America, 19134",
    "latitude": 39.9927877,
    "longitude": -75.1108957,
    "recentMemberCount": 3
  },
  {
    "name": "Providence Barbell Club",
    "address": "479 Washington St, Providence, Rhode Island, United States of America, 02903",
    "latitude": 41.8179781,
    "longitude": -71.4253671,
    "recentMemberCount": 2
  },
  {
    "name": "Red Eye Barbell Club",
    "address": "65 South Colony Rd., Wallingford, Connecticut, United States of America, 06492",
    "latitude": 41.4557323,
    "longitude": -72.8250659,
    "recentMemberCount": 1
  },
  {
    "name": "Steel Anchor Weightlifting",
    "address": "10 Cedarhill Park Drive, Plymouth, Massachusetts, United States of America, 02360",
    "latitude": 41.8232843,
    "longitude": -70.5573084,
    "recentMemberCount": 0
  },
  {
    "name": "Team Florida Gainesville",
    "address": "3709 Southwest 42nd Avenue, Gainesville, Florida, United States of America, 32608",
    "latitude": 29.6135992,
    "longitude": -82.37604,
    "recentMemberCount": 1
  },
  {
    "name": "TeamLPW (Lion's Pride Weightlifting)",
    "address": "1213 York Street, Cincinnati, Ohio, United States of America, 45214",
    "latitude": 39.1177099,
    "longitude": -84.5357842,
    "recentMemberCount": 0
  },
  {
    "name": "TITAN WEIGHTLIFTING ASSN",
    "address": "1991 Merrick Ave, Merrick, New York, United States of America, 11566",
    "latitude": 40.6696581,
    "longitude": -73.5545094,
    "recentMemberCount": 0
  },
  {
    "name": "UW - LA CROSSE WEIGHTLIFTING CLUB",
    "address": "1601 Badger St, La Crosse, Wisconsin, United States of America, 54601",
    "latitude": 43.8166047,
    "longitude": -91.2327543,
    "recentMemberCount": 3
  },
  {
    "name": "WEST MADISON WEIGHTLIFTING",
    "address": "5380 King James Way Suite A1, Madison, Wisconsin, United States of America, 53719",
    "latitude": 43.0297546,
    "longitude": -89.4881398,
    "recentMemberCount": 0
  },
  {
    "name": "BLUEGRASS BARBELL CLUB",
    "address": "Louisville, Kentucky, United States of America",
    "latitude": 38.2542376,
    "longitude": -85.759407,
    "recentMemberCount": 2
  },
  {
    "name": "Black Flag Barbell",
    "address": "33750 Lear Industrial Pkwy, Avon, Ohio, United States of America, 44011",
    "latitude": 41.4722723,
    "longitude": -81.9927414,
    "recentMemberCount": 0
  },
  {
    "name": "Broken Record Barbell",
    "address": "968 S Jordan Pkwy, South Jordan, Utah, United States of America, 84095",
    "latitude": 40.5601148,
    "longitude": -111.9179945,
    "recentMemberCount": 0
  },
  {
    "name": "Dedicated Strength",
    "address": "1802 11th St. NW 1B, Washington, District of Columbia, United States of America, 20001",
    "latitude": 38.9145258,
    "longitude": -77.0273707,
    "recentMemberCount": 0
  },
  {
    "name": "Fortius Weightlifting",
    "address": "598 Vail Valley Dr, Vail, Colorado, United States of America, 81657",
    "latitude": 39.6382138,
    "longitude": -106.3673111,
    "recentMemberCount": 0
  },
  {
    "name": "FOUNDATION BARBELL",
    "address": "1415 12th Ave, Seattle, Washington, United States of America, 98122",
    "latitude": 47.6134866,
    "longitude": -122.3170376,
    "recentMemberCount": 2
  },
  {
    "name": "Grand Rapids Barbell Club",
    "address": "2945 Hillcroft Ave SW, Wyoming, Michigan, United States of America, 49548",
    "latitude": 42.9102163,
    "longitude": -85.6739098,
    "recentMemberCount": 1
  },
  {
    "name": "Grit City Barbell Club",
    "address": "391 Concord Ave, Bronx, New York, United States of America, 10454",
    "latitude": 40.808218,
    "longitude": -73.9100935,
    "recentMemberCount": 0
  },
  {
    "name": "Little Falls Weightlifting",
    "address": "1001  5th Ave SE, Little Falls, Minnesota, United States of America, 56345",
    "latitude": 45.971645,
    "longitude": -94.3477326,
    "recentMemberCount": 0
  },
  {
    "name": "Ma Weightlifting",
    "address": "3359, Hampton Crossing, St. Charles, Missouri, United States of America, 63303",
    "latitude": 38.7388969,
    "longitude": -90.5722828,
    "recentMemberCount": 0
  },
  {
    "name": "MM Barbell",
    "address": "1610 W 22nd St, Houston, Texas, United States of America, 77008",
    "latitude": 29.805562,
    "longitude": -95.4276552,
    "recentMemberCount": 0
  },
  {
    "name": "Moran Academy",
    "address": "1099 3rd Ave. Southwest, Carmel, Indiana, United States of America, 46032",
    "latitude": 39.9632713,
    "longitude": -86.1319266,
    "recentMemberCount": 2
  },
  {
    "name": "Muscle + Mindset",
    "address": "923 W 9th Ave, Denver, Colorado, United States of America, 80204",
    "latitude": 39.7316149,
    "longitude": -105.0200374,
    "recentMemberCount": 2
  },
  {
    "name": "NBHD BRBL",
    "address": "226 N Henry St, Alexandria, Virginia, United States of America, 22314",
    "latitude": 38.8071324,
    "longitude": -77.0511545,
    "recentMemberCount": 0
  },
  {
    "name": "Never Quit Barbell",
    "address": "11925 Highway 70, Arlington, Tennessee, United States of America, 38002",
    "latitude": 35.2515909,
    "longitude": -89.7338543,
    "recentMemberCount": 0
  },
  {
    "name": "Ohana Dome Barbell Club",
    "address": "38958 bluebell drive, Newark, California, United States of America, 94560",
    "latitude": 37.5228555,
    "longitude": -122.0093474,
    "recentMemberCount": 1
  },
  {
    "name": "OKC BARBELL CLUB",
    "address": "825 NW 85th Street, STE D, Oklahoma City, Oklahoma, United States of America, 73114",
    "latitude": 35.5793584,
    "longitude": -97.530288,
    "recentMemberCount": 2
  },
  {
    "name": "S&C GRADUATE WLC",
    "address": "6000 J Street, Sacramento, California, United States of America, 95819",
    "latitude": 38.5599044,
    "longitude": -121.4240819,
    "recentMemberCount": 0
  },
  {
    "name": "Shoofly Barbell Club",
    "address": "620 Lakestone Commons Ave, Suite 620, Fuquay-Varina, North Carolina, United States of America, 27526",
    "latitude": 35.5901148,
    "longitude": -78.7840848,
    "recentMemberCount": 1
  },
  {
    "name": "Sweep The Sheds Weightlifting",
    "address": "87 Executive Drive, Suite 2, Aurora, Illinois, United States of America, 60504",
    "latitude": 41.7482759,
    "longitude": -88.2484082,
    "recentMemberCount": 0
  },
  {
    "name": "Baltimore Built Barbell",
    "address": "7521 Pulaski Highway, Baltimore, Maryland, United States of America, 21237",
    "latitude": 39.312755,
    "longitude": -76.5216728,
    "recentMemberCount": 0
  }
]